    {"city": "Tirupati", "state": "Andhra Pradesh", "lat": 13.6316, "lon": 79.4232, "zone": "coastal_east"},
    {"city": "Kurnool", "state": "Andhra Pradesh", "lat": 15.8309, "lon": 78.0425, "zone": "coastal_east"},
    {"city": "Nellore", "state": "Andhra Pradesh", "lat": 14.4494, "lon": 79.9874, "zone": "coastal_east"},
    {"city": "Kadapa", "state": "Andhra Pradesh", "lat": 14.4753, "lon": 78.8217, "zone": "coastal_east"},
    {"city": "Rajahmundry", "state": "Andhra Pradesh", "lat": 17.005, "lon": 81.7805, "zone": "coastal_east"},
    {"city": "Kakinada", "state": "Andhra Pradesh", "lat": 16.9437, "lon": 82.2351, "zone": "coastal_east"},
    {"city": "Anantapur", "state": "Andhra Pradesh", "lat": 14.6783, "lon": 77.6065, "zone": "coastal_east"},
    {"city": "Itanagar", "state": "Arunachal Pradesh", "lat": 27.098, "lon": 93.6237, "zone": "inland_northeast"},
    {"city": "Tawang", "state": "Arunachal Pradesh", "lat": 27.5879, "lon": 91.8637, "zone": "inland_northeast"},
    {"city": "Pasighat", "state": "Arunachal Pradesh", "lat": 28.059, "lon": 95.3325, "zone": "inland_northeast"},
    {"city": "Ziro", "state": "Arunachal Pradesh", "lat": 27.5387, "lon": 93.8154, "zone": "inland_northeast"},
    {"city": "Jorhat", "state": "Assam", "lat": 26.7578, "lon": 94.208, "zone": "inland_northeast"},
    {"city": "Tezpur", "state": "Assam", "lat": 26.617, "lon": 92.765, "zone": "inland_northeast"},
    {"city": "Tinsukia", "state": "Assam", "lat": 27.488, "lon": 95.3602, "zone": "inland_northeast"},
    {"city": "Nagaon", "state": "Assam", "lat": 26.3314, "lon": 92.7525, "zone": "inland_northeast"},
    {"city": "Bongaigaon", "state": "Assam", "lat": 26.48, "lon": 90.558, "zone": "inland_northeast"},
    {"city": "Gaya", "state": "Bihar", "lat": 24.7964, "lon": 85.008, "zone": "inland_central"},
    {"city": "Bhagalpur", "state": "Bihar", "lat": 25.2861, "lon": 87.1304, "zone": "inland_central"},
    {"city": "Muzaffarpur", "state": "Bihar", "lat": 26.1483, "lon": 85.3316, "zone": "inland_central"},
    {"city": "Purnia", "state": "Bihar", "lat": 25.7759, "lon": 87.4088, "zone": "inland_central"},
    {"city": "Darbhanga", "state": "Bihar", "lat": 26.083, "lon": 86.0325, "zone": "inland_central"},
    {"city": "Arrah", "state": "Bihar", "lat": 25.5603, "lon": 84.6632, "zone": "inland_central"},
    {"city": "Begusarai", "state": "Bihar", "lat": 25.5125, "lon": 86.0883, "zone": "inland_central"},
    {"city": "Bilaspur", "state": "Chhattisgarh", "lat": 22.1638, "lon": 82.1366, "zone": "inland_central"},
    {"city": "Korba", "state": "Chhattisgarh", "lat": 22.5198, "lon": 82.635, "zone": "inland_central"},
    {"city": "Bhilai", "state": "Chhattisgarh", "lat": 21.2121, "lon": 81.3733, "zone": "inland_central"},
    {"city": "Durg", "state": "Chhattisgarh", "lat": 21.1983, "lon": 81.4008, "zone": "inland_central"},
    {"city": "Raigarh", "state": "Chhattisgarh", "lat": 22.2362, "lon": 83.353, "zone": "inland_central"},
    {"city": "Ambikapur", "state": "Chhattisgarh", "lat": 23.1226, "lon": 83.1982, "zone": "inland_central"},
    {"city": "Panaji", "state": "Goa", "lat": 15.499, "lon": 73.8282, "zone": "coastal_west"},
    {"city": "Vasco da Gama", "state": "Goa", "lat": 15.3984, "lon": 73.8129, "zone": "coastal_west"},
    {"city": "Margao", "state": "Goa", "lat": 15.2729, "lon": 73.9583, "zone": "coastal_west"},
    {"city": "Mapusa", "state": "Goa", "lat": 15.5909, "lon": 73.8102, "zone": "coastal_west"},
    {"city": "Ponda", "state": "Goa", "lat": 15.4036, "lon": 74.0102, "zone": "coastal_west"},
    {"city": "Bhavnagar", "state": "Gujarat", "lat": 21.7719, "lon": 72.1416, "zone": "coastal_west"},
    {"city": "Jamnagar", "state": "Gujarat", "lat": 22.4732, "lon": 70.0552, "zone": "coastal_west"},
    {"city": "Junagadh", "state": "Gujarat", "lat": 21.522, "lon": 70.4582, "zone": "coastal_west"},
    {"city": "Gandhinagar", "state": "Gujarat", "lat": 23.2233, "lon": 72.6492, "zone": "coastal_west"},
    {"city": "Anand", "state": "Gujarat", "lat": 22.5587, "lon": 72.9627, "zone": "coastal_west"},
    {"city": "Navsari", "state": "Gujarat", "lat": 20.9524, "lon": 72.9324, "zone": "coastal_west"},
    {"city": "Morbi", "state": "Gujarat", "lat": 22.8004, "lon": 70.8862, "zone": "coastal_west"},
    {"city": "Bharuch", "state": "Gujarat", "lat": 21.708, "lon": 72.9957, "zone": "coastal_west"},
    {"city": "Faridabad", "state": "Haryana", "lat": 28.4031, "lon": 77.3106, "zone": "inland_central"},
    {"city": "Gurugram", "state": "Haryana", "lat": 28.4646, "lon": 77.0299, "zone": "inland_central"},
    {"city": "Panipat", "state": "Haryana", "lat": 29.3913, "lon": 76.9772, "zone": "inland_central"},
    {"city": "Ambala", "state": "Haryana", "lat": 30.3844, "lon": 76.7704, "zone": "inland_central"},
    {"city": "Yamunanagar", "state": "Haryana", "lat": 30.1231, "lon": 77.2863, "zone": "inland_central"},
    {"city": "Rohtak", "state": "Haryana", "lat": 28.9011, "lon": 76.5802, "zone": "inland_central"},
    {"city": "Hisar", "state": "Haryana", "lat": 29.2397, "lon": 75.8175, "zone": "inland_central"},
    {"city": "Karnal", "state": "Haryana", "lat": 29.7256, "lon": 76.9107, "zone": "inland_central"},
    {"city": "Mandi", "state": "Himachal Pradesh", "lat": 31.6517, "lon": 77.0093, "zone": "himalayan"},
    {"city": "Solan", "state": "Himachal Pradesh", "lat": 30.9078, "lon": 77.1024, "zone": "himalayan"},
    {"city": "Kullu", "state": "Himachal Pradesh", "lat": 31.9579, "lon": 77.1089, "zone": "himalayan"},
    {"city": "Chamba", "state": "Himachal Pradesh", "lat": 32.6923, "lon": 76.1632, "zone": "himalayan"},
    {"city": "Bilaspur", "state": "Himachal Pradesh", "lat": 31.3381, "lon": 76.7612, "zone": "himalayan"},
    {"city": "Dalhousie", "state": "Himachal Pradesh", "lat": 32.5436, "lon": 75.9448, "zone": "himalayan"},
    {"city": "Jamshedpur", "state": "Jharkhand", "lat": 22.8015, "lon": 86.203, "zone": "inland_central"},
    {"city": "Dhanbad", "state": "Jharkhand", "lat": 23.7953, "lon": 86.431, "zone": "inland_central"},
    {"city": "Bokaro", "state": "Jharkhand", "lat": 23.6991, "lon": 85.9911, "zone": "inland_central"},
    {"city": "Deoghar", "state": "Jharkhand", "lat": 24.4898, "lon": 86.699, "zone": "inland_central"},
    {"city": "Hazaribagh", "state": "Jharkhand", "lat": 24.0867, "lon": 85.4912, "zone": "inland_central"},
    {"city": "Giridih", "state": "Jharkhand", "lat": 24.3315, "lon": 86.1548, "zone": "inland_central"},
    {"city": "Hubli", "state": "Karnataka", "lat": 15.3518, "lon": 75.138, "zone": "coastal_west"},
    {"city": "Mangalore", "state": "Karnataka", "lat": 12.8698, "lon": 74.843, "zone": "coastal_west"},
    {"city": "Belagavi", "state": "Karnataka", "lat": 16.1588, "lon": 74.8889, "zone": "coastal_west"},
    {"city": "Bellary", "state": "Karnataka", "lat": 15.143, "lon": 76.9173, "zone": "coastal_west"},
    {"city": "Bijapur", "state": "Karnataka", "lat": 16.827, "lon": 75.7175, "zone": "coastal_west"},
    {"city": "Shivamogga", "state": "Karnataka", "lat": 13.9326, "lon": 75.575, "zone": "coastal_west"},
    {"city": "Tumkur", "state": "Karnataka", "lat": 13.3401, "lon": 77.1006, "zone": "coastal_west"},
    {"city": "Kannur", "state": "Kerala", "lat": 11.8764, "lon": 75.3738, "zone": "coastal_west"},
    {"city": "Alappuzha", "state": "Kerala", "lat": 9.5003, "lon": 76.4123, "zone": "coastal_west"},
    {"city": "Kottayam", "state": "Kerala", "lat": 9.6287, "lon": 76.6455, "zone": "coastal_west"},
    {"city": "Palakkad", "state": "Kerala", "lat": 10.7874, "lon": 76.4742, "zone": "coastal_west"},
    {"city": "Manjeri", "state": "Kerala", "lat": 11.1202, "lon": 76.1198, "zone": "coastal_west"},
    {"city": "Thalassery", "state": "Kerala", "lat": 11.7539, "lon": 75.4923, "zone": "coastal_west"},
    {"city": "Ponnani", "state": "Kerala", "lat": 10.7801, "lon": 75.9189, "zone": "coastal_west"},
    {"city": "Ujjain", "state": "Madhya Pradesh", "lat": 23.1885, "lon": 75.7717, "zone": "inland_central"},
    {"city": "Sagar", "state": "Madhya Pradesh", "lat": 23.8083, "lon": 78.7583, "zone": "inland_central"},
    {"city": "Dewas", "state": "Madhya Pradesh", "lat": 22.8057, "lon": 76.294, "zone": "inland_central"},
    {"city": "Satna", "state": "Madhya Pradesh", "lat": 24.6954, "lon": 80.777, "zone": "inland_central"},
    {"city": "Ratlam", "state": "Madhya Pradesh", "lat": 23.5022, "lon": 74.9552, "zone": "inland_central"},
    {"city": "Rewa", "state": "Madhya Pradesh", "lat": 24.7561, "lon": 81.3811, "zone": "inland_central"},
    {"city": "Murwara", "state": "Madhya Pradesh", "lat": 23.834, "lon": 80.3925, "zone": "inland_central"},
    {"city": "Singrauli", "state": "Madhya Pradesh", "lat": 24.2431, "lon": 82.3828, "zone": "inland_central"},
    {"city": "Bishnupur", "state": "Manipur", "lat": 24.6267, "lon": 93.76, "zone": "inland_northeast"},
    {"city": "Thoubal", "state": "Manipur", "lat": 24.6387, "lon": 93.9969, "zone": "inland_northeast"},
    {"city": "Churachandpur", "state": "Manipur", "lat": 24.3469, "lon": 93.6994, "zone": "inland_northeast"},
    {"city": "Tura", "state": "Meghalaya", "lat": 25.5126, "lon": 90.2172, "zone": "inland_northeast"},
    {"city": "Nongstoin", "state": "Meghalaya", "lat": 25.5726, "lon": 91.2541, "zone": "inland_northeast"},
    {"city": "Jowai", "state": "Meghalaya", "lat": 25.4435, "lon": 92.1973, "zone": "inland_northeast"},
    {"city": "Aizawl", "state": "Mizoram", "lat": 23.7278, "lon": 92.718, "zone": "inland_northeast"},
    {"city": "Lunglei", "state": "Mizoram", "lat": 22.952, "lon": 92.6339, "zone": "inland_northeast"},
    {"city": "Champhai", "state": "Mizoram", "lat": 23.6317, "lon": 93.3493, "zone": "inland_northeast"},
    {"city": "Dimapur", "state": "Nagaland", "lat": 25.9041, "lon": 93.7178, "zone": "inland_northeast"},
    {"city": "Kohima", "state": "Nagaland", "lat": 25.6619, "lon": 94.1019, "zone": "inland_northeast"},
    {"city": "Mokokchung", "state": "Nagaland", "lat": 26.4796, "lon": 94.5105, "zone": "inland_northeast"},
    {"city": "Rourkela", "state": "Odisha", "lat": 22.2309, "lon": 84.8679, "zone": "coastal_east"},
    {"city": "Brahmapur", "state": "Odisha", "lat": 19.3098, "lon": 84.7972, "zone": "coastal_east"},
    {"city": "Sambalpur", "state": "Odisha", "lat": 21.5571, "lon": 84.1529, "zone": "coastal_east"},
    {"city": "Puri", "state": "Odisha", "lat": 19.8076, "lon": 85.8253, "zone": "coastal_east"},
    {"city": "Balasore", "state": "Odisha", "lat": 21.5006, "lon": 86.9199, "zone": "coastal_east"},
    {"city": "Bhadrak", "state": "Odisha", "lat": 20.9854, "lon": 86.5934, "zone": "coastal_east"},
    {"city": "Baripada", "state": "Odisha", "lat": 21.9342, "lon": 86.7309, "zone": "coastal_east"},
    {"city": "Ludhiana", "state": "Punjab", "lat": 30.909, "lon": 75.8516, "zone": "inland_central"},
    {"city": "Amritsar", "state": "Punjab", "lat": 31.6357, "lon": 74.8787, "zone": "inland_central"},
    {"city": "Jalandhar", "state": "Punjab", "lat": 31.2922, "lon": 75.5679, "zone": "inland_central"},
    {"city": "Patiala", "state": "Punjab", "lat": 30.2093, "lon": 76.3397, "zone": "inland_central"},
    {"city": "Bathinda", "state": "Punjab", "lat": 30.1795, "lon": 75.0471, "zone": "inland_central"},
    {"city": "Hoshiarpur", "state": "Punjab", "lat": 31.6093, "lon": 75.846, "zone": "inland_central"},
    {"city": "Mohali", "state": "Punjab", "lat": 30.7041, "lon": 76.7177, "zone": "inland_central"},
    {"city": "Batala", "state": "Punjab", "lat": 31.8193, "lon": 75.2, "zone": "inland_central"},
    {"city": "Jodhpur", "state": "Rajasthan", "lat": 26.2968, "lon": 73.0351, "zone": "desert"},
    {"city": "Kota", "state": "Rajasthan", "lat": 25.1737, "lon": 75.8574, "zone": "desert"},
    {"city": "Bikaner", "state": "Rajasthan", "lat": 28.0159, "lon": 73.3171, "zone": "desert"},
    {"city": "Ajmer", "state": "Rajasthan", "lat": 26.4691, "lon": 74.639, "zone": "desert"},
    {"city": "Udaipur", "state": "Rajasthan", "lat": 24.5787, "lon": 73.6863, "zone": "desert"},
    {"city": "Bhilwara", "state": "Rajasthan", "lat": 25.471, "lon": 74.6961, "zone": "desert"},
    {"city": "Alwar", "state": "Rajasthan", "lat": 27.414, "lon": 76.617, "zone": "desert"},
    {"city": "Sikar", "state": "Rajasthan", "lat": 27.6624, "lon": 75.028, "zone": "desert"},
    {"city": "Namchi", "state": "Sikkim", "lat": 27.3031, "lon": 88.3786, "zone": "himalayan"},
    {"city": "Gyalshing", "state": "Sikkim", "lat": 27.4185, "lon": 88.1808, "zone": "himalayan"},
    {"city": "Mangan", "state": "Sikkim", "lat": 27.7497, "lon": 88.5212, "zone": "himalayan"},
    {"city": "Madurai", "state": "Tamil Nadu", "lat": 9.9261, "lon": 78.1141, "zone": "coastal_east"},
    {"city": "Tiruchirappalli", "state": "Tamil Nadu", "lat": 10.8071, "lon": 78.6881, "zone": "coastal_east"},
    {"city": "Salem", "state": "Tamil Nadu", "lat": 11.647, "lon": 78.2107, "zone": "coastal_east"},
    {"city": "Tirunelveli", "state": "Tamil Nadu", "lat": 8.5495, "lon": 77.5805, "zone": "coastal_east"},
    {"city": "Tiruppur", "state": "Tamil Nadu", "lat": 10.7915, "lon": 77.5325, "zone": "coastal_east"},
    {"city": "Vellore", "state": "Tamil Nadu", "lat": 12.9022, "lon": 79.0611, "zone": "coastal_east"},
    {"city": "Erode", "state": "Tamil Nadu", "lat": 11.4905, "lon": 77.3505, "zone": "coastal_east"},
    {"city": "Thoothukudi", "state": "Tamil Nadu", "lat": 8.8457, "lon": 77.9938, "zone": "coastal_east"},
    {"city": "Warangal", "state": "Telangana", "lat": 17.9821, "lon": 79.5971, "zone": "inland_central"},
    {"city": "Nizamabad", "state": "Telangana", "lat": 18.6733, "lon": 78.0978, "zone": "inland_central"},
    {"city": "Khammam", "state": "Telangana", "lat": 17.2465, "lon": 80.15, "zone": "inland_central"},
    {"city": "Karimnagar", "state": "Telangana", "lat": 18.4348, "lon": 79.1328, "zone": "inland_central"},
    {"city": "Ramagundam", "state": "Telangana", "lat": 18.7615, "lon": 79.4788, "zone": "inland_central"},
    {"city": "Mahbubnagar", "state": "Telangana", "lat": 16.7435, "lon": 77.9923, "zone": "inland_central"},
    {"city": "Agartala", "state": "Tripura", "lat": 23.8312, "lon": 91.2824, "zone": "inland_northeast"},
    {"city": "Dharmanagar", "state": "Tripura", "lat": 24.444, "lon": 92.2073, "zone": "inland_northeast"},
    {"city": "Udaipur", "state": "Tripura", "lat": 23.5416, "lon": 91.4918, "zone": "inland_northeast"},
    {"city": "Kanpur", "state": "Uttar Pradesh", "lat": 26.4609, "lon": 80.3218, "zone": "inland_central"},
    {"city": "Agra", "state": "Uttar Pradesh", "lat": 27.1753, "lon": 78.0098, "zone": "inland_central"},
    {"city": "Meerut", "state": "Uttar Pradesh", "lat": 29.0019, "lon": 77.768, "zone": "inland_central"},
    {"city": "Varanasi", "state": "Uttar Pradesh", "lat": 25.3356, "lon": 83.0076, "zone": "inland_central"},
    {"city": "Allahabad", "state": "Uttar Pradesh", "lat": 25.4381, "lon": 81.8338, "zone": "inland_central"},
    {"city": "Bareilly", "state": "Uttar Pradesh", "lat": 28.4582, "lon": 79.4047, "zone": "inland_central"},
    {"city": "Aligarh", "state": "Uttar Pradesh", "lat": 27.8761, "lon": 78.1358, "zone": "inland_central"},
    {"city": "Moradabad", "state": "Uttar Pradesh", "lat": 28.8797, "lon": 78.8095, "zone": "inland_central"},
    {"city": "Saharanpur", "state": "Uttar Pradesh", "lat": 29.9857, "lon": 77.5041, "zone": "inland_central"},
    {"city": "Gorakhpur", "state": "Uttar Pradesh", "lat": 26.6678, "lon": 83.3642, "zone": "inland_central"},
    {"city": "Dehradun", "state": "Uttarakhand", "lat": 30.3256, "lon": 78.0437, "zone": "himalayan"},
    {"city": "Haridwar", "state": "Uttarakhand", "lat": 29.9124, "lon": 78.0087, "zone": "himalayan"},
    {"city": "Roorkee", "state": "Uttarakhand", "lat": 29.8693, "lon": 77.8902, "zone": "himalayan"},
    {"city": "Haldwani", "state": "Uttarakhand", "lat": 29.2145, "lon": 79.5279, "zone": "himalayan"},
    {"city": "Rudrapur", "state": "Uttarakhand", "lat": 28.9707, "lon": 79.3973, "zone": "himalayan"},
    {"city": "Kashipur", "state": "Uttarakhand", "lat": 29.2118, "lon": 78.9617, "zone": "himalayan"},
    {"city": "Rishikesh", "state": "Uttarakhand", "lat": 30.1087, "lon": 78.2916, "zone": "himalayan"},
    {"city": "Asansol", "state": "West Bengal", "lat": 23.6871, "lon": 86.9747, "zone": "coastal_east"},
    {"city": "Siliguri", "state": "West Bengal", "lat": 26.7164, "lon": 88.431, "zone": "coastal_east"},
    {"city": "Durgapur", "state": "West Bengal", "lat": 23.535, "lon": 87.338, "zone": "coastal_east"},
    {"city": "Bardhaman", "state": "West Bengal", "lat": 23.2496, "lon": 87.8682, "zone": "coastal_east"},
    {"city": "Malda", "state": "West Bengal", "lat": 25.0057, "lon": 88.1398, "zone": "coastal_east"},
    {"city": "Baharampur", "state": "West Bengal", "lat": 24.1045, "lon": 88.2511, "zone": "coastal_east"},
    {"city": "Habra", "state": "West Bengal", "lat": 22.8401, "lon": 88.6631, "zone": "coastal_east"},
    {"city": "Kharagpur", "state": "West Bengal", "lat": 22.3431, "lon": 87.3013, "zone": "coastal_east"}