[
    {
        "city": "Port Blair",
        "lat": 11.6234,
        "lon": 92.7265,
        "state": "Andaman & Nicobar Islands",
        "zone": "island"
    },
    {
        "city": "Anantapur",
        "state": "Andhra Pradesh",
        "lat": 14.6783,
        "lon": 77.6065,
        "zone": "coastal_east"
    },
    {
        "city": "Kadapa",
        "state": "Andhra Pradesh",
        "lat": 14.4753,
        "lon": 78.8217,
        "zone": "coastal_east"
    },
    {
        "city": "Kakinada",
        "state": "Andhra Pradesh",
        "lat": 16.9437,
        "lon": 82.2351,
        "zone": "coastal_east"
    },
    {
        "city": "Kurnool",
        "state": "Andhra Pradesh",
        "lat": 15.8309,
        "lon": 78.0425,
        "zone": "coastal_east"
    },
    {
        "city": "Nellore",
        "state": "Andhra Pradesh",
        "lat": 14.4494,
        "lon": 79.9874,
        "zone": "coastal_east"
    },
    {
        "city": "Rajahmundry",
        "state": "Andhra Pradesh",
        "lat": 17.005,
        "lon": 81.7805,
        "zone": "coastal_east"
    },
    {
        "city": "Tirupati",
        "state": "Andhra Pradesh",
        "lat": 13.6316,
        "lon": 79.4232,
        "zone": "coastal_east"
    },
    {
        "city": "Vijayawada",
        "lat": 16.5062,
        "lon": 80.648,
        "state": "Andhra Pradesh",
        "zone": "coastal_east"
    },
    {
        "city": "Visakhapatnam",
        "lat": 17.6868,
        "lon": 83.2185,
        "state": "Andhra Pradesh",
        "zone": "coastal_east"
    },
    {
        "city": "Itanagar",
        "state": "Arunachal Pradesh",
        "lat": 27.098,
        "lon": 93.6237,
        "zone": "inland_northeast"
    },
    {
        "city": "Pasighat",
        "state": "Arunachal Pradesh",
        "lat": 28.059,
        "lon": 95.3325,
        "zone": "inland_northeast"
    },
    {
        "city": "Tawang",
        "state": "Arunachal Pradesh",
        "lat": 27.5879,
        "lon": 91.8637,
        "zone": "inland_northeast"
    },
    {
        "city": "Ziro",
        "state": "Arunachal Pradesh",
        "lat": 27.5387,
        "lon": 93.8154,
        "zone": "inland_northeast"
    },
    {
        "city": "Bongaigaon",
        "state": "Assam",
        "lat": 26.48,
        "lon": 90.558,
        "zone": "inland_northeast"
    },
    {
        "city": "Dibrugarh",
        "lat": 27.4728,
        "lon": 94.912,
        "state": "Assam",
        "zone": "inland_northeast"
    },
    {
        "city": "Guwahati",
        "lat": 26.1445,
        "lon": 91.7362,
        "state": "Assam",
        "zone": "inland_northeast"
    },
    {
        "city": "Jorhat",
        "state": "Assam",
        "lat": 26.7578,
        "lon": 94.208,
        "zone": "inland_northeast"
    },
    {
        "city": "Nagaon",
        "state": "Assam",
        "lat": 26.3314,
        "lon": 92.7525,
        "zone": "inland_northeast"
    },
    {
        "city": "Silchar",
        "lat": 24.8333,
        "lon": 92.7789,
        "state": "Assam",
        "zone": "inland_northeast"
    },
    {
        "city": "Tezpur",
        "state": "Assam",
        "lat": 26.617,
        "lon": 92.765,
        "zone": "inland_northeast"
    },
    {
        "city": "Tinsukia",
        "state": "Assam",
        "lat": 27.488,
        "lon": 95.3602,
        "zone": "inland_northeast"
    },
    {
        "city": "Arrah",
        "state": "Bihar",
        "lat": 25.5603,
        "lon": 84.6632,
        "zone": "inland_central"
    },
    {
        "city": "Begusarai",
        "state": "Bihar",
        "lat": 25.5125,
        "lon": 86.0883,
        "zone": "inland_central"
    },
    {
        "city": "Bhagalpur",
        "state": "Bihar",
        "lat": 25.2861,
        "lon": 87.1304,
        "zone": "inland_central"
    },
    {
        "city": "Darbhanga",
        "state": "Bihar",
        "lat": 26.083,
        "lon": 86.0325,
        "zone": "inland_central"
    },
    {
        "city": "Gaya",
        "state": "Bihar",
        "lat": 24.7964,
        "lon": 85.008,
        "zone": "inland_central"
    },
    {
        "city": "Muzaffarpur",
        "state": "Bihar",
        "lat": 26.1483,
        "lon": 85.3316,
        "zone": "inland_central"
    },
    {
        "city": "Patna",
        "lat": 25.6093,
        "lon": 85.1376,
        "state": "Bihar",
        "zone": "inland_north"
    },
    {
        "city": "Purnia",
        "state": "Bihar",
        "lat": 25.7759,
        "lon": 87.4088,
        "zone": "inland_central"
    },
    {
        "city": "Chandigarh",
        "lat": 30.7333,
        "lon": 76.7794,
        "state": "Chandigarh",
        "zone": "inland_north"
    },
    {
        "city": "Ambikapur",
        "state": "Chhattisgarh",
        "lat": 23.1226,
        "lon": 83.1982,
        "zone": "inland_central"
    },
    {
        "city": "Bhilai",
        "state": "Chhattisgarh",
        "lat": 21.2121,
        "lon": 81.3733,
        "zone": "inland_central"
    },
    {
        "city": "Bilaspur",
        "state": "Chhattisgarh",
        "lat": 22.1638,
        "lon": 82.1366,
        "zone": "inland_central"
    },
    {
        "city": "Durg",
        "state": "Chhattisgarh",
        "lat": 21.1983,
        "lon": 81.4008,
        "zone": "inland_central"
    },
    {
        "city": "Korba",
        "state": "Chhattisgarh",
        "lat": 22.5198,
        "lon": 82.635,
        "zone": "inland_central"
    },
    {
        "city": "Raigarh",
        "state": "Chhattisgarh",
        "lat": 22.2362,
        "lon": 83.353,
        "zone": "inland_central"
    },
    {
        "city": "Raipur",
        "lat": 21.2514,
        "lon": 81.6296,
        "state": "Chhattisgarh",
        "zone": "inland_central"
    },
    {
        "city": "Delhi",
        "lat": 28.6139,
        "lon": 77.209,
        "state": "Delhi",
        "zone": "inland_north"
    },
    {
        "city": "Goa",
        "lat": 15.2993,
        "lon": 74.124,
        "state": "Goa",
        "zone": "coastal_west"
    },
    {
        "city": "Mapusa",
        "state": "Goa",
        "lat": 15.5909,
        "lon": 73.8102,
        "zone": "coastal_west"
    },
    {
        "city": "Margao",
        "state": "Goa",
        "lat": 15.2729,
        "lon": 73.9583,
        "zone": "coastal_west"
    },
    {
        "city": "Panaji",
        "state": "Goa",
        "lat": 15.499,
        "lon": 73.8282,
        "zone": "coastal_west"
    },
    {
        "city": "Ponda",
        "state": "Goa",
        "lat": 15.4036,
        "lon": 74.0102,
        "zone": "coastal_west"
    },
    {
        "city": "Vasco da Gama",
        "state": "Goa",
        "lat": 15.3984,
        "lon": 73.8129,
        "zone": "coastal_west"
    },
    {
        "city": "Ahmedabad",
        "lat": 23.0225,
        "lon": 72.5714,
        "state": "Gujarat",
        "zone": "inland_west"
    },
    {
        "city": "Anand",
        "state": "Gujarat",
        "lat": 22.5587,
        "lon": 72.9627,
        "zone": "coastal_west"
    },
    {
        "city": "Bharuch",
        "state": "Gujarat",
        "lat": 21.708,
        "lon": 72.9957,
        "zone": "coastal_west"
    },
    {
        "city": "Bhavnagar",
        "state": "Gujarat",
        "lat": 21.7719,
        "lon": 72.1416,
        "zone": "coastal_west"
    },
    {
        "city": "Gandhinagar",
        "state": "Gujarat",
        "lat": 23.2233,
        "lon": 72.6492,
        "zone": "coastal_west"
    },
    {
        "city": "Jamnagar",
        "state": "Gujarat",
        "lat": 22.4732,
        "lon": 70.0552,
        "zone": "coastal_west"
    },
    {
        "city": "Junagadh",
        "state": "Gujarat",
        "lat": 21.522,
        "lon": 70.4582,
        "zone": "coastal_west"
    },
    {
        "city": "Morbi",
        "state": "Gujarat",
        "lat": 22.8004,
        "lon": 70.8862,
        "zone": "coastal_west"
    },
    {
        "city": "Navsari",
        "state": "Gujarat",
        "lat": 20.9524,
        "lon": 72.9324,
        "zone": "coastal_west"
    },
    {
        "city": "Rajkot",
        "lat": 22.3039,
        "lon": 70.8022,
        "state": "Gujarat",
        "zone": "inland_west"
    },
    {
        "city": "Surat",
        "lat": 21.1702,
        "lon": 72.8311,
        "state": "Gujarat",
        "zone": "coastal_west"
    },
    {
        "city": "Vadodara",
        "lat": 22.3072,
        "lon": 73.1812,
        "state": "Gujarat",
        "zone": "inland_west"
    },
    {
        "city": "Ambala",
        "state": "Haryana",
        "lat": 30.3844,
        "lon": 76.7704,
        "zone": "inland_central"
    },
    {
        "city": "Faridabad",
        "state": "Haryana",
        "lat": 28.4031,
        "lon": 77.3106,
        "zone": "inland_central"
    },
    {
        "city": "Gurugram",
        "state": "Haryana",
        "lat": 28.4646,
        "lon": 77.0299,
        "zone": "inland_central"
    },
    {
        "city": "Hisar",
        "state": "Haryana",
        "lat": 29.2397,
        "lon": 75.8175,
        "zone": "inland_central"
    },
    {
        "city": "Karnal",
        "state": "Haryana",
        "lat": 29.7256,
        "lon": 76.9107,
        "zone": "inland_central"
    },
    {
        "city": "Panipat",
        "state": "Haryana",
        "lat": 29.3913,
        "lon": 76.9772,
        "zone": "inland_central"
    },
    {
        "city": "Rohtak",
        "state": "Haryana",
        "lat": 28.9011,
        "lon": 76.5802,
        "zone": "inland_central"
    },
    {
        "city": "Yamunanagar",
        "state": "Haryana",
        "lat": 30.1231,
        "lon": 77.2863,
        "zone": "inland_central"
    },
    {
        "city": "Bilaspur",
        "state": "Himachal Pradesh",
        "lat": 31.3381,
        "lon": 76.7612,
        "zone": "himalayan"
    },
    {
        "city": "Chamba",
        "state": "Himachal Pradesh",
        "lat": 32.6923,
        "lon": 76.1632,
        "zone": "himalayan"
    },
    {
        "city": "Dalhousie",
        "state": "Himachal Pradesh",
        "lat": 32.5436,
        "lon": 75.9448,
        "zone": "himalayan"
    },
    {
        "city": "Dharamshala",
        "lat": 32.219,
        "lon": 76.3234,
        "state": "Himachal Pradesh",
        "zone": "himalayan"
    },
    {
        "city": "Kullu",
        "state": "Himachal Pradesh",
        "lat": 31.9579,
        "lon": 77.1089,
        "zone": "himalayan"
    },
    {
        "city": "Mandi",
        "state": "Himachal Pradesh",
        "lat": 31.6517,
        "lon": 77.0093,
        "zone": "himalayan"
    },
    {
        "city": "Shimla",
        "lat": 31.1048,
        "lon": 77.1734,
        "state": "Himachal Pradesh",
        "zone": "himalayan"
    },
    {
        "city": "Solan",
        "state": "Himachal Pradesh",
        "lat": 30.9078,
        "lon": 77.1024,
        "zone": "himalayan"
    },
    {
        "city": "Jammu",
        "lat": 32.7266,
        "lon": 74.857,
        "state": "Jammu & Kashmir",
        "zone": "himalayan"
    },
    {
        "city": "Srinagar",
        "lat": 34.0837,
        "lon": 74.7973,
        "state": "Jammu & Kashmir",
        "zone": "himalayan"
    },
    {
        "city": "Bokaro",
        "state": "Jharkhand",
        "lat": 23.6991,
        "lon": 85.9911,
        "zone": "inland_central"
    },
    {
        "city": "Deoghar",
        "state": "Jharkhand",
        "lat": 24.4898,
        "lon": 86.699,
        "zone": "inland_central"
    },
    {
        "city": "Dhanbad",
        "state": "Jharkhand",
        "lat": 23.7953,
        "lon": 86.431,
        "zone": "inland_central"
    },
    {
        "city": "Giridih",
        "state": "Jharkhand",
        "lat": 24.3315,
        "lon": 86.1548,
        "zone": "inland_central"
    },
    {
        "city": "Hazaribagh",
        "state": "Jharkhand",
        "lat": 24.0867,
        "lon": 85.4912,
        "zone": "inland_central"
    },
    {
        "city": "Jamshedpur",
        "state": "Jharkhand",
        "lat": 22.8015,
        "lon": 86.203,
        "zone": "inland_central"
    },
    {
        "city": "Ranchi",
        "lat": 23.3441,
        "lon": 85.3096,
        "state": "Jharkhand",
        "zone": "inland_central"
    },
    {
        "city": "Bangalore",
        "lat": 12.9716,
        "lon": 77.5946,
        "state": "Karnataka",
        "zone": "inland_south"
    },
    {
        "city": "Belagavi",
        "lat": 15.8497,
        "lon": 74.4977,
        "state": "Karnataka",
        "zone": "inland_south"
    },
    {
        "city": "Bellary",
        "state": "Karnataka",
        "lat": 15.143,
        "lon": 76.9173,
        "zone": "coastal_west"
    },
    {
        "city": "Bijapur",
        "state": "Karnataka",
        "lat": 16.827,
        "lon": 75.7175,
        "zone": "coastal_west"
    },
    {
        "city": "Davanagere",
        "lat": 14.4644,
        "lon": 75.9218,
        "state": "Karnataka",
        "zone": "inland_south"
    },
    {
        "city": "Hubli",
        "lat": 15.3647,
        "lon": 75.124,
        "state": "Karnataka",
        "zone": "inland_south"
    },
    {
        "city": "Mangalore",
        "lat": 12.9141,
        "lon": 74.856,
        "state": "Karnataka",
        "zone": "coastal_west"
    },
    {
        "city": "Mysore",
        "lat": 12.2958,
        "lon": 76.6394,
        "state": "Karnataka",
        "zone": "inland_south"
    },
    {
        "city": "Shivamogga",
        "state": "Karnataka",
        "lat": 13.9326,
        "lon": 75.575,
        "zone": "coastal_west"
    },
    {
        "city": "Tumkur",
        "state": "Karnataka",
        "lat": 13.3401,
        "lon": 77.1006,
        "zone": "coastal_west"
    },
    {
        "city": "Alappuzha",
        "state": "Kerala",
        "lat": 9.5003,
        "lon": 76.4123,
        "zone": "coastal_west"
    },
    {
        "city": "Kannur",
        "state": "Kerala",
        "lat": 11.8764,
        "lon": 75.3738,
        "zone": "coastal_west"
    },
    {
        "city": "Kochi",
        "lat": 9.9312,
        "lon": 76.2673,
        "state": "Kerala",
        "zone": "coastal_west"
    },
    {
        "city": "Kollam",
        "lat": 8.8932,
        "lon": 76.6141,
        "state": "Kerala",
        "zone": "coastal_west"
    },
    {
        "city": "Kottayam",
        "state": "Kerala",
        "lat": 9.6287,
        "lon": 76.6455,
        "zone": "coastal_west"
    },
    {
        "city": "Kozhikode",
        "lat": 11.2588,
        "lon": 75.7804,
        "state": "Kerala",
        "zone": "coastal_west"
    },
    {
        "city": "Manjeri",
        "state": "Kerala",
        "lat": 11.1202,
        "lon": 76.1198,
        "zone": "coastal_west"
    },
    {
        "city": "Palakkad",
        "state": "Kerala",
        "lat": 10.7874,
        "lon": 76.4742,
        "zone": "coastal_west"
    },
    {
        "city": "Ponnani",
        "state": "Kerala",
        "lat": 10.7801,
        "lon": 75.9189,
        "zone": "coastal_west"
    },
    {
        "city": "Thalassery",
        "state": "Kerala",
        "lat": 11.7539,
        "lon": 75.4923,
        "zone": "coastal_west"
    },
    {
        "city": "Thiruvananthapuram",
        "lat": 8.5241,
        "lon": 76.9366,
        "state": "Kerala",
        "zone": "coastal_west"
    },
    {
        "city": "Thrissur",
        "lat": 10.5276,
        "lon": 76.2144,
        "state": "Kerala",
        "zone": "coastal_west"
    },
    {
        "city": "Kargil",
        "lat": 34.5539,
        "lon": 76.1349,
        "state": "Ladakh",
        "zone": "himalayan"
    },
    {
        "city": "Leh",
        "lat": 34.1526,
        "lon": 77.5771,
        "state": "Ladakh",
        "zone": "himalayan"
    },
    {
        "city": "Bhopal",
        "lat": 23.2599,
        "lon": 77.4126,
        "state": "Madhya Pradesh",
        "zone": "inland_central"
    },
    {
        "city": "Dewas",
        "state": "Madhya Pradesh",
        "lat": 22.8057,
        "lon": 76.294,
        "zone": "inland_central"
    },
    {
        "city": "Gwalior",
        "lat": 26.2183,
        "lon": 78.1828,
        "state": "Madhya Pradesh",
        "zone": "inland_central"
    },
    {
        "city": "Indore",
        "lat": 22.7196,
        "lon": 75.8577,
        "state": "Madhya Pradesh",
        "zone": "inland_central"
    },
    {
        "city": "Jabalpur",
        "lat": 23.1815,
        "lon": 79.9864,
        "state": "Madhya Pradesh",
        "zone": "inland_central"
    },
    {
        "city": "Murwara",
        "state": "Madhya Pradesh",
        "lat": 23.834,
        "lon": 80.3925,
        "zone": "inland_central"
    },
    {
        "city": "Ratlam",
        "state": "Madhya Pradesh",
        "lat": 23.5022,
        "lon": 74.9552,
        "zone": "inland_central"
    },
    {
        "city": "Rewa",
        "lat": 24.5373,
        "lon": 81.3042,
        "state": "Madhya Pradesh",
        "zone": "inland_central"
    },
    {
        "city": "Sagar",
        "lat": 23.8322,
        "lon": 78.7378,
        "state": "Madhya Pradesh",
        "zone": "inland_central"
    },
    {
        "city": "Satna",
        "state": "Madhya Pradesh",
        "lat": 24.6954,
        "lon": 80.777,
        "zone": "inland_central"
    },
    {
        "city": "Singrauli",
        "state": "Madhya Pradesh",
        "lat": 24.2431,
        "lon": 82.3828,
        "zone": "inland_central"
    },
    {
        "city": "Ujjain",
        "lat": 23.1765,
        "lon": 75.7885,
        "state": "Madhya Pradesh",
        "zone": "inland_central"
    },
    {
        "city": "Ahmednagar",
        "lat": 19.1628,
        "lon": 74.858,
        "state": "Maharashtra",
        "zone": "inland_west"
    },
    {
        "city": "Akola",
        "lat": 20.7618,
        "lon": 77.1921,
        "state": "Maharashtra",
        "zone": "inland_central"
    },
    {
        "city": "Alibaug",
        "state": "Maharashtra",
        "lat": 18.6498,
        "lon": 72.8765,
        "zone": "coastal_west"
    },
    {
        "city": "Amalner",
        "state": "Maharashtra",
        "lat": 21.0493,
        "lon": 75.0573,
        "zone": "inland_west"
    },
    {
        "city": "Ambajogai",
        "state": "Maharashtra",
        "lat": 18.7318,
        "lon": 76.3855,
        "zone": "inland_west"
    },
    {
        "city": "Amravati",
        "lat": 21.1545,
        "lon": 77.6443,
        "state": "Maharashtra",
        "zone": "inland_central"
    },
    {
        "city": "Aurangabad",
        "lat": 19.8762,
        "lon": 75.3433,
        "state": "Maharashtra",
        "zone": "inland_west"
    },
    {
        "city": "Ausa",
        "state": "Maharashtra",
        "lat": 18.251,
        "lon": 76.501,
        "zone": "inland_central"
    },
    {
        "city": "Baramati",
        "lat": 18.2199,
        "lon": 74.4534,
        "state": "Maharashtra",
        "zone": "inland_west"
    },
    {
        "city": "Beed",
        "lat": 18.9918,
        "lon": 75.9098,
        "state": "Maharashtra",
        "zone": "inland_west"
    },
    {
        "city": "Bhandara",
        "lat": 21.1226,
        "lon": 79.7945,
        "state": "Maharashtra",
        "zone": "inland_central"
    },
    {
        "city": "Bhiwandi",
        "lat": 19.3026,
        "lon": 73.0588,
        "state": "Maharashtra",
        "zone": "coastal_west"
    },
    {
        "city": "Bhusawal",
        "state": "Maharashtra",
        "lat": 21.0457,
        "lon": 75.7808,
        "zone": "inland_west"
    },
    {
        "city": "Buldhana",
        "lat": 20.5628,
        "lon": 76.4087,
        "state": "Maharashtra",
        "zone": "inland_central"
    },
    {
        "city": "Chandrapur",
        "lat": 20.0968,
        "lon": 79.5045,
        "state": "Maharashtra",
        "zone": "inland_central"
    },
    {
        "city": "Chhatrapati Sambhajinagar",
        "lat": 19.8773,
        "lon": 75.339,
        "state": "Maharashtra",
        "zone": "inland_west"
    },
    {
        "city": "Chiplun",
        "lat": 17.5253,
        "lon": 73.5156,
        "state": "Maharashtra",
        "zone": "inland_west"
    },
    {
        "city": "Dahanu",
        "state": "Maharashtra",
        "lat": 19.9887,
        "lon": 72.7338,
        "zone": "coastal_west"
    },
    {
        "city": "Dapoli",
        "state": "Maharashtra",
        "lat": 17.758,
        "lon": 73.1887,
        "zone": "coastal_west"
    },
    {
        "city": "Dharashiv",
        "lat": 18.1698,
        "lon": 76.118,
        "state": "Maharashtra",
        "zone": "inland_central"
    },
    {
        "city": "Dhule",
        "lat": 21.1305,
        "lon": 74.4901,
        "state": "Maharashtra",
        "zone": "inland_west"
    },
    {
        "city": "Gadchiroli",
        "lat": 19.7591,
        "lon": 80.1623,
        "state": "Maharashtra",
        "zone": "inland_central"
    },
    {
        "city": "Gondia",
        "lat": 21.4552,
        "lon": 80.1963,
        "state": "Maharashtra",
        "zone": "inland_central"
    },
    {
        "city": "Guhagar",
        "state": "Maharashtra",
        "lat": 17.4838,
        "lon": 73.1911,
        "zone": "coastal_west"
    },
    {
        "city": "Hingoli",
        "lat": 19.5431,
        "lon": 77.1739,
        "state": "Maharashtra",
        "zone": "inland_central"
    },
    {
        "city": "Ichalkaranji",
        "lat": 16.6959,
        "lon": 74.4556,
        "state": "Maharashtra",
        "zone": "inland_west"
    },
    {
        "city": "Igatpuri",
        "state": "Maharashtra",
        "lat": 19.6944,
        "lon": 73.5639,
        "zone": "inland_west"
    },
    {
        "city": "Islampur",
        "state": "Maharashtra",
        "lat": 21.0396,
        "lon": 76.4052,
        "zone": "inland_west"
    },
    {
        "city": "Jalgaon",
        "lat": 20.8429,
        "lon": 75.5261,
        "state": "Maharashtra",
        "zone": "inland_west"
    },
    {
        "city": "Jalna",
        "lat": 19.9188,
        "lon": 75.8709,
        "state": "Maharashtra",
        "zone": "inland_west"
    },
    {
        "city": "Jat",
        "state": "Maharashtra",
        "lat": 17.0719,
        "lon": 75.3331,
        "zone": "inland_west"
    },
    {
        "city": "Junnar",
        "state": "Maharashtra",
        "lat": 19.2007,
        "lon": 73.9768,
        "zone": "inland_west"
    },
    {
        "city": "Kalyan",
        "lat": 19.2397,
        "lon": 73.1366,
        "state": "Maharashtra",
        "zone": "coastal_west"
    },
    {
        "city": "Kankavli",
        "lat": 16.3742,
        "lon": 73.7452,
        "state": "Maharashtra",
        "zone": "inland_west"
    },
    {
        "city": "Karad",
        "lat": 17.2852,
        "lon": 74.1822,
        "state": "Maharashtra",
        "zone": "inland_west"
    },
    {
        "city": "Karjat",
        "state": "Maharashtra",
        "lat": 18.9128,
        "lon": 73.3228,
        "zone": "inland_west"
    },
    {
        "city": "Khamgaon",
        "state": "Maharashtra",
        "lat": 20.6502,
        "lon": 76.5592,
        "zone": "inland_central"
    },
    {
        "city": "Khed",
        "state": "Maharashtra",
        "lat": 17.7126,
        "lon": 73.4107,
        "zone": "inland_west"
    },
    {
        "city": "Khopoli",
        "state": "Maharashtra",
        "lat": 18.7877,
        "lon": 73.3438,
        "zone": "inland_west"
    },
    {
        "city": "Kolhapur",
        "lat": 16.7028,
        "lon": 74.2405,
        "state": "Maharashtra",
        "zone": "inland_west"
    },
    {
        "city": "Kopargaon",
        "state": "Maharashtra",
        "lat": 19.837,
        "lon": 74.4829,
        "zone": "inland_west"
    },
    {
        "city": "Kudal",
        "lat": 16.0172,
        "lon": 73.6781,
        "state": "Maharashtra",
        "zone": "inland_west"
    },
    {
        "city": "Latur",
        "lat": 18.3553,
        "lon": 76.7549,
        "state": "Maharashtra",
        "zone": "inland_central"
    },
    {
        "city": "Lonavala",
        "state": "Maharashtra",
        "lat": 18.7504,
        "lon": 73.4069,
        "zone": "inland_west"
    },
    {
        "city": "Mahabaleshwar",
        "state": "Maharashtra",
        "lat": 17.9243,
        "lon": 73.6576,
        "zone": "inland_west"
    },
    {
        "city": "Malegaon",
        "lat": 20.5576,
        "lon": 74.5247,
        "state": "Maharashtra",
        "zone": "inland_west"
    },
    {
        "city": "Malkapur",
        "state": "Maharashtra",
        "lat": 20.892,
        "lon": 76.204,
        "zone": "inland_central"
    },
    {
        "city": "Manchar",
        "state": "Maharashtra",
        "lat": 19.0033,
        "lon": 73.9427,
        "zone": "inland_west"
    },
    {
        "city": "Matheran",
        "state": "Maharashtra",
        "lat": 18.9902,
        "lon": 73.27,
        "zone": "inland_west"
    },
    {
        "city": "Mira Bhayandar",
        "lat": 19.3184,
        "lon": 72.8992,
        "state": "Maharashtra",
        "zone": "coastal_west"
    },
    {
        "city": "Mumbai",
        "lat": 19.076,
        "lon": 72.8777,
        "state": "Maharashtra",
        "zone": "coastal_west"
    },
    {
        "city": "Nagpur",
        "lat": 21.1458,
        "lon": 79.0882,
        "state": "Maharashtra",
        "zone": "inland_central"
    },
    {
        "city": "Nanded",
        "lat": 19.0943,
        "lon": 77.4833,
        "state": "Maharashtra",
        "zone": "inland_central"
    },
    {
        "city": "Nandurbar",
        "lat": 21.5142,
        "lon": 74.5406,
        "state": "Maharashtra",
        "zone": "inland_west"
    },
    {
        "city": "Nashik",
        "lat": 19.9975,
        "lon": 73.7898,
        "state": "Maharashtra",
        "zone": "inland_west"
    },
    {
        "city": "Navi Mumbai",
        "lat": 19.033,
        "lon": 73.0297,
        "state": "Maharashtra",
        "zone": "coastal_west"
    },
    {
        "city": "Palghar",
        "lat": 19.7572,
        "lon": 73.0931,
        "state": "Maharashtra",
        "zone": "coastal_west"
    },
    {
        "city": "Palus",
        "state": "Maharashtra",
        "lat": 17.045,
        "lon": 74.4366,
        "zone": "inland_west"
    },
    {
        "city": "Panchgani",
        "state": "Maharashtra",
        "lat": 17.924,
        "lon": 73.7993,
        "zone": "inland_west"
    },
    {
        "city": "Pandharpur",
        "lat": 17.7256,
        "lon": 75.3002,
        "state": "Maharashtra",
        "zone": "inland_west"
    },
    {
        "city": "Panvel",
        "lat": 18.9895,
        "lon": 73.1222,
        "state": "Maharashtra",
        "zone": "coastal_west"
    },
    {
        "city": "Parbhani",
        "lat": 19.2902,
        "lon": 76.6026,
        "state": "Maharashtra",
        "zone": "inland_central"
    },
    {
        "city": "Parli",
        "state": "Maharashtra",
        "lat": 18.8486,
        "lon": 76.5297,
        "zone": "inland_west"
    },
    {
        "city": "Pimpri-Chinchwad",
        "lat": 18.6279,
        "lon": 73.801,
        "state": "Maharashtra",
        "zone": "inland_west"
    },
    {
        "city": "Pune",
        "lat": 18.5204,
        "lon": 73.8567,
        "state": "Maharashtra",
        "zone": "inland_west"
    },
    {
        "city": "Raigad",
        "lat": 18.4928,
        "lon": 73.1381,
        "state": "Maharashtra",
        "zone": "coastal_west"
    },
    {
        "city": "Ratnagiri",
        "lat": 17.2826,
        "lon": 73.457,
        "state": "Maharashtra",
        "zone": "coastal_west"
    },
    {
        "city": "Sangamner",
        "state": "Maharashtra",
        "lat": 19.4906,
        "lon": 74.2467,
        "zone": "inland_west"
    },
    {
        "city": "Sangli",
        "lat": 17.1727,
        "lon": 74.5868,
        "state": "Maharashtra",
        "zone": "inland_west"
    },
    {
        "city": "Satara",
        "lat": 17.6361,
        "lon": 74.2983,
        "state": "Maharashtra",
        "zone": "inland_west"
    },
    {
        "city": "Sawantwadi",
        "state": "Maharashtra",
        "lat": 15.908,
        "lon": 73.8205,
        "zone": "coastal_west"
    },
    {
        "city": "Shirpur",
        "state": "Maharashtra",
        "lat": 20.4309,
        "lon": 76.1858,
        "zone": "inland_west"
    },
    {
        "city": "Shrigonda",
        "state": "Maharashtra",
        "lat": 18.6764,
        "lon": 74.6709,
        "zone": "inland_west"
    },
    {
        "city": "Shrirampur",
        "state": "Maharashtra",
        "lat": 19.642,
        "lon": 74.7007,
        "zone": "inland_west"
    },
    {
        "city": "Sindhudurg",
        "lat": 16.1357,
        "lon": 73.6522,
        "state": "Maharashtra",
        "zone": "inland_west"
    },
    {
        "city": "Solapur",
        "lat": 17.8499,
        "lon": 75.2763,
        "state": "Maharashtra",
        "zone": "inland_west"
    },
    {
        "city": "Thane",
        "lat": 19.2183,
        "lon": 72.9781,
        "state": "Maharashtra",
        "zone": "coastal_west"
    },
    {
        "city": "Tuljapur",
        "lat": 20.9824,
        "lon": 77.655,
        "state": "Maharashtra",
        "zone": "inland_central"
    },
    {
        "city": "Udgir",
        "state": "Maharashtra",
        "lat": 18.3921,
        "lon": 77.1196,
        "zone": "inland_central"
    },
    {
        "city": "Ulhasnagar",
        "lat": 19.2236,
        "lon": 73.1672,
        "state": "Maharashtra",
        "zone": "coastal_west"
    },
    {
        "city": "Vasai",
        "lat": 19.3428,
        "lon": 72.8054,
        "state": "Maharashtra",
        "zone": "coastal_west"
    },
    {
        "city": "Virar",
        "lat": 19.4498,
        "lon": 72.8121,
        "state": "Maharashtra",
        "zone": "coastal_west"
    },
    {
        "city": "Wai",
        "state": "Maharashtra",
        "lat": 17.9424,
        "lon": 73.9193,
        "zone": "inland_west"
    },
    {
        "city": "Wardha",
        "lat": 20.8256,
        "lon": 78.6131,
        "state": "Maharashtra",
        "zone": "inland_central"
    },
    {
        "city": "Washim",
        "lat": 20.2874,
        "lon": 77.237,
        "state": "Maharashtra",
        "zone": "inland_central"
    },
    {
        "city": "Yavatmal",
        "lat": 20.0639,
        "lon": 78.3566,
        "state": "Maharashtra",
        "zone": "inland_central"
    },
    {
        "city": "Bishnupur",
        "state": "Manipur",
        "lat": 24.6267,
        "lon": 93.76,
        "zone": "inland_northeast"
    },
    {
        "city": "Churachandpur",
        "state": "Manipur",
        "lat": 24.3469,
        "lon": 93.6994,
        "zone": "inland_northeast"
    },
    {
        "city": "Imphal",
        "lat": 24.817,
        "lon": 93.9368,
        "state": "Manipur",
        "zone": "inland_northeast"
    },
    {
        "city": "Thoubal",
        "state": "Manipur",
        "lat": 24.6387,
        "lon": 93.9969,
        "zone": "inland_northeast"
    },
    {
        "city": "Jowai",
        "state": "Meghalaya",
        "lat": 25.4435,
        "lon": 92.1973,
        "zone": "inland_northeast"
    },
    {
        "city": "Nongstoin",
        "state": "Meghalaya",
        "lat": 25.5726,
        "lon": 91.2541,
        "zone": "inland_northeast"
    },
    {
        "city": "Shillong",
        "lat": 25.5788,
        "lon": 91.8933,
        "state": "Meghalaya",
        "zone": "inland_northeast"
    },
    {
        "city": "Tura",
        "state": "Meghalaya",
        "lat": 25.5126,
        "lon": 90.2172,
        "zone": "inland_northeast"
    },
    {
        "city": "Aizawl",
        "state": "Mizoram",
        "lat": 23.7278,
        "lon": 92.718,
        "zone": "inland_northeast"
    },
    {
        "city": "Champhai",
        "state": "Mizoram",
        "lat": 23.6317,
        "lon": 93.3493,
        "zone": "inland_northeast"
    },
    {
        "city": "Lunglei",
        "state": "Mizoram",
        "lat": 22.952,
        "lon": 92.6339,
        "zone": "inland_northeast"
    },
    {
        "city": "Dimapur",
        "state": "Nagaland",
        "lat": 25.9041,
        "lon": 93.7178,
        "zone": "inland_northeast"
    },
    {
        "city": "Kohima",
        "state": "Nagaland",
        "lat": 25.6619,
        "lon": 94.1019,
        "zone": "inland_northeast"
    },
    {
        "city": "Mokokchung",
        "state": "Nagaland",
        "lat": 26.4796,
        "lon": 94.5105,
        "zone": "inland_northeast"
    },
    {
        "city": "Balasore",
        "state": "Odisha",
        "lat": 21.5006,
        "lon": 86.9199,
        "zone": "coastal_east"
    },
    {
        "city": "Baripada",
        "state": "Odisha",
        "lat": 21.9342,
        "lon": 86.7309,
        "zone": "coastal_east"
    },
    {
        "city": "Bhadrak",
        "state": "Odisha",
        "lat": 20.9854,
        "lon": 86.5934,
        "zone": "coastal_east"
    },
    {
        "city": "Bhubaneswar",
        "lat": 20.2961,
        "lon": 85.8245,
        "state": "Odisha",
        "zone": "coastal_east"
    },
    {
        "city": "Brahmapur",
        "state": "Odisha",
        "lat": 19.3098,
        "lon": 84.7972,
        "zone": "coastal_east"
    },
    {
        "city": "Cuttack",
        "lat": 20.4625,
        "lon": 85.8828,
        "state": "Odisha",
        "zone": "coastal_east"
    },
    {
        "city": "Puri",
        "state": "Odisha",
        "lat": 19.8076,
        "lon": 85.8253,
        "zone": "coastal_east"
    },
    {
        "city": "Rourkela",
        "state": "Odisha",
        "lat": 22.2309,
        "lon": 84.8679,
        "zone": "coastal_east"
    },
    {
        "city": "Sambalpur",
        "state": "Odisha",
        "lat": 21.5571,
        "lon": 84.1529,
        "zone": "coastal_east"
    },
    {
        "city": "Pondicherry",
        "lat": 11.9416,
        "lon": 79.8083,
        "state": "Puducherry",
        "zone": "coastal_east"
    },
    {
        "city": "Amritsar",
        "lat": 31.634,
        "lon": 74.8723,
        "state": "Punjab",
        "zone": "inland_north"
    },
    {
        "city": "Batala",
        "state": "Punjab",
        "lat": 31.8193,
        "lon": 75.2,
        "zone": "inland_central"
    },
    {
        "city": "Bathinda",
        "lat": 30.211,
        "lon": 74.9455,
        "state": "Punjab",
        "zone": "inland_north"
    },
    {
        "city": "Hoshiarpur",
        "state": "Punjab",
        "lat": 31.6093,
        "lon": 75.846,
        "zone": "inland_central"
    },
    {
        "city": "Jalandhar",
        "lat": 31.326,
        "lon": 75.5762,
        "state": "Punjab",
        "zone": "inland_north"
    },
    {
        "city": "Ludhiana",
        "lat": 30.901,
        "lon": 75.8573,
        "state": "Punjab",
        "zone": "inland_north"
    },
    {
        "city": "Mohali",
        "state": "Punjab",
        "lat": 30.7041,
        "lon": 76.7177,
        "zone": "inland_central"
    },
    {
        "city": "Patiala",
        "lat": 30.3398,
        "lon": 76.3869,
        "state": "Punjab",
        "zone": "inland_north"
    },
    {
        "city": "Ajmer",
        "lat": 26.4499,
        "lon": 74.6399,
        "state": "Rajasthan",
        "zone": "inland_west"
    },
    {
        "city": "Alwar",
        "state": "Rajasthan",
        "lat": 27.414,
        "lon": 76.617,
        "zone": "desert"
    },
    {
        "city": "Bhilwara",
        "state": "Rajasthan",
        "lat": 25.471,
        "lon": 74.6961,
        "zone": "desert"
    },
    {
        "city": "Bikaner",
        "lat": 28.0229,
        "lon": 73.3119,
        "state": "Rajasthan",
        "zone": "desert"
    },
    {
        "city": "Jaipur",
        "lat": 26.9124,
        "lon": 75.7873,
        "state": "Rajasthan",
        "zone": "inland_north"
    },
    {
        "city": "Jaisalmer",
        "lat": 26.9157,
        "lon": 70.9083,
        "state": "Rajasthan",
        "zone": "desert"
    },
    {
        "city": "Jodhpur",
        "lat": 26.2389,
        "lon": 73.0243,
        "state": "Rajasthan",
        "zone": "desert"
    },
    {
        "city": "Kota",
        "lat": 25.2138,
        "lon": 75.8648,
        "state": "Rajasthan",
        "zone": "inland_west"
    },
    {
        "city": "Sikar",
        "state": "Rajasthan",
        "lat": 27.6624,
        "lon": 75.028,
        "zone": "desert"
    },
    {
        "city": "Udaipur",
        "lat": 24.5854,
        "lon": 73.7125,
        "state": "Rajasthan",
        "zone": "inland_west"
    },
    {
        "city": "Gangtok",
        "lat": 27.3389,
        "lon": 88.6065,
        "state": "Sikkim",
        "zone": "himalayan"
    },
    {
        "city": "Gyalshing",
        "state": "Sikkim",
        "lat": 27.4185,
        "lon": 88.1808,
        "zone": "himalayan"
    },
    {
        "city": "Mangan",
        "state": "Sikkim",
        "lat": 27.7497,
        "lon": 88.5212,
        "zone": "himalayan"
    },
    {
        "city": "Namchi",
        "state": "Sikkim",
        "lat": 27.3031,
        "lon": 88.3786,
        "zone": "himalayan"
    },
    {
        "city": "Chennai",
        "lat": 13.0827,
        "lon": 80.2707,
        "state": "Tamil Nadu",
        "zone": "coastal_east"
    },
    {
        "city": "Coimbatore",
        "lat": 11.0168,
        "lon": 76.9558,
        "state": "Tamil Nadu",
        "zone": "inland_south"
    },
    {
        "city": "Erode",
        "lat": 11.341,
        "lon": 77.7172,
        "state": "Tamil Nadu",
        "zone": "inland_south"
    },
    {
        "city": "Madurai",
        "lat": 9.9252,
        "lon": 78.1198,
        "state": "Tamil Nadu",
        "zone": "inland_south"
    },
    {
        "city": "Salem",
        "lat": 11.6643,
        "lon": 78.146,
        "state": "Tamil Nadu",
        "zone": "inland_south"
    },
    {
        "city": "Thoothukudi",
        "state": "Tamil Nadu",
        "lat": 8.8457,
        "lon": 77.9938,
        "zone": "coastal_east"
    },
    {
        "city": "Tiruchirappalli",
        "lat": 10.7905,
        "lon": 78.7047,
        "state": "Tamil Nadu",
        "zone": "inland_south"
    },
    {
        "city": "Tirunelveli",
        "lat": 8.7139,
        "lon": 77.7567,
        "state": "Tamil Nadu",
        "zone": "inland_south"
    },
    {
        "city": "Tiruppur",
        "state": "Tamil Nadu",
        "lat": 10.7915,
        "lon": 77.5325,
        "zone": "coastal_east"
    },
    {
        "city": "Vellore",
        "lat": 12.9165,
        "lon": 79.1325,
        "state": "Tamil Nadu",
        "zone": "inland_south"
    },
    {
        "city": "Hyderabad",
        "lat": 17.385,
        "lon": 78.4867,
        "state": "Telangana",
        "zone": "inland_south"
    },
    {
        "city": "Karimnagar",
        "state": "Telangana",
        "lat": 18.4348,
        "lon": 79.1328,
        "zone": "inland_central"
    },
    {
        "city": "Khammam",
        "state": "Telangana",
        "lat": 17.2465,
        "lon": 80.15,
        "zone": "inland_central"
    },
    {
        "city": "Mahbubnagar",
        "state": "Telangana",
        "lat": 16.7435,
        "lon": 77.9923,
        "zone": "inland_central"
    },
    {
        "city": "Nizamabad",
        "state": "Telangana",
        "lat": 18.6733,
        "lon": 78.0978,
        "zone": "inland_central"
    },
    {
        "city": "Ramagundam",
        "state": "Telangana",
        "lat": 18.7615,
        "lon": 79.4788,
        "zone": "inland_central"
    },
    {
        "city": "Warangal",
        "state": "Telangana",
        "lat": 17.9821,
        "lon": 79.5971,
        "zone": "inland_central"
    },
    {
        "city": "Agartala",
        "state": "Tripura",
        "lat": 23.8312,
        "lon": 91.2824,
        "zone": "inland_northeast"
    },
    {
        "city": "Dharmanagar",
        "state": "Tripura",
        "lat": 24.444,
        "lon": 92.2073,
        "zone": "inland_northeast"
    },
    {
        "city": "Udaipur",
        "state": "Tripura",
        "lat": 23.5416,
        "lon": 91.4918,
        "zone": "inland_northeast"
    },
    {
        "city": "Agra",
        "lat": 27.1767,
        "lon": 78.0081,
        "state": "Uttar Pradesh",
        "zone": "inland_north"
    },
    {
        "city": "Aligarh",
        "state": "Uttar Pradesh",
        "lat": 27.8761,
        "lon": 78.1358,
        "zone": "inland_central"
    },
    {
        "city": "Allahabad",
        "state": "Uttar Pradesh",
        "lat": 25.4381,
        "lon": 81.8338,
        "zone": "inland_central"
    },
    {
        "city": "Bareilly",
        "state": "Uttar Pradesh",
        "lat": 28.4582,
        "lon": 79.4047,
        "zone": "inland_central"
    },
    {
        "city": "Gorakhpur",
        "state": "Uttar Pradesh",
        "lat": 26.6678,
        "lon": 83.3642,
        "zone": "inland_central"
    },
    {
        "city": "Kanpur",
        "lat": 26.4499,
        "lon": 80.3319,
        "state": "Uttar Pradesh",
        "zone": "inland_north"
    },
    {
        "city": "Lucknow",
        "lat": 26.8467,
        "lon": 80.9462,
        "state": "Uttar Pradesh",
        "zone": "inland_north"
    },
    {
        "city": "Meerut",
        "state": "Uttar Pradesh",
        "lat": 29.0019,
        "lon": 77.768,
        "zone": "inland_central"
    },
    {
        "city": "Moradabad",
        "state": "Uttar Pradesh",
        "lat": 28.8797,
        "lon": 78.8095,
        "zone": "inland_central"
    },
    {
        "city": "Saharanpur",
        "state": "Uttar Pradesh",
        "lat": 29.9857,
        "lon": 77.5041,
        "zone": "inland_central"
    },
    {
        "city": "Varanasi",
        "lat": 25.3176,
        "lon": 83.0068,
        "state": "Uttar Pradesh",
        "zone": "inland_north"
    },
    {
        "city": "Dehradun",
        "lat": 30.3165,
        "lon": 78.0322,
        "state": "Uttarakhand",
        "zone": "himalayan"
    },
    {
        "city": "Haldwani",
        "state": "Uttarakhand",
        "lat": 29.2145,
        "lon": 79.5279,
        "zone": "himalayan"
    },
    {
        "city": "Haridwar",
        "state": "Uttarakhand",
        "lat": 29.9124,
        "lon": 78.0087,
        "zone": "himalayan"
    },
    {
        "city": "Kashipur",
        "state": "Uttarakhand",
        "lat": 29.2118,
        "lon": 78.9617,
        "zone": "himalayan"
    },
    {
        "city": "Mussoorie",
        "lat": 30.4598,
        "lon": 78.0776,
        "state": "Uttarakhand",
        "zone": "himalayan"
    },
    {
        "city": "Nainital",
        "lat": 29.3919,
        "lon": 79.4542,
        "state": "Uttarakhand",
        "zone": "himalayan"
    },
    {
        "city": "Rishikesh",
        "lat": 30.0869,
        "lon": 78.2676,
        "state": "Uttarakhand",
        "zone": "himalayan"
    },
    {
        "city": "Roorkee",
        "state": "Uttarakhand",
        "lat": 29.8693,
        "lon": 77.8902,
        "zone": "himalayan"
    },
    {
        "city": "Rudrapur",
        "state": "Uttarakhand",
        "lat": 28.9707,
        "lon": 79.3973,
        "zone": "himalayan"
    },
    {
        "city": "Asansol",
        "lat": 23.6739,
        "lon": 86.9524,
        "state": "West Bengal",
        "zone": "inland_east"
    },
    {
        "city": "Baharampur",
        "state": "West Bengal",
        "lat": 24.1045,
        "lon": 88.2511,
        "zone": "coastal_east"
    },
    {
        "city": "Bardhaman",
        "state": "West Bengal",
        "lat": 23.2496,
        "lon": 87.8682,
        "zone": "coastal_east"
    },
    {
        "city": "Darjeeling",
        "lat": 27.041,
        "lon": 88.2663,
        "state": "West Bengal",
        "zone": "himalayan"
    },
    {
        "city": "Durgapur",
        "lat": 23.5204,
        "lon": 87.3119,
        "state": "West Bengal",
        "zone": "inland_east"
    },
    {
        "city": "Habra",
        "state": "West Bengal",
        "lat": 22.8401,
        "lon": 88.6631,
        "zone": "coastal_east"
    },
    {
        "city": "Howrah",
        "lat": 22.5958,
        "lon": 88.311,
        "state": "West Bengal",
        "zone": "coastal_east"
    },
    {
        "city": "Kharagpur",
        "state": "West Bengal",
        "lat": 22.3431,
        "lon": 87.3013,
        "zone": "coastal_east"
    },
    {
        "city": "Kolkata",
        "lat": 22.5726,
        "lon": 88.3639,
        "state": "West Bengal",
        "zone": "coastal_east"
    },
    {
        "city": "Malda",
        "state": "West Bengal",
        "lat": 25.0057,
        "lon": 88.1398,
        "zone": "coastal_east"
    },
    {
        "city": "Siliguri",
        "lat": 26.7271,
        "lon": 88.3953,
        "state": "West Bengal",
        "zone": "himalayan"
    },
    {
        "city": "Chittoor",
        "state": "Andhra Pradesh",
        "lat": 13.325,
        "lon": 79.6481,
        "zone": "inland_south"
    },
    {
        "city": "East Godavari",
        "state": "Andhra Pradesh",
        "lat": 16.9957,
        "lon": 81.7154,
        "zone": "inland_central"
    },
    {
        "city": "Guntur",
        "state": "Andhra Pradesh",
        "lat": 16.2915,
        "lon": 80.4542,
        "zone": "inland_central"
    },
    {
        "city": "Krishna",
        "state": "Andhra Pradesh",
        "lat": 16.2135,
        "lon": 81.0278,
        "zone": "inland_central"
    },
    {
        "city": "Prakasam",
        "state": "Andhra Pradesh",
        "lat": 15.6643,
        "lon": 79.4733,
        "zone": "inland_central"
    },
    {
        "city": "Srikakulam",
        "state": "Andhra Pradesh",
        "lat": 18.2949,
        "lon": 83.8939,
        "zone": "inland_central"
    },
    {
        "city": "Vizianagaram",
        "state": "Andhra Pradesh",
        "lat": 18.1141,
        "lon": 83.4114,
        "zone": "inland_central"
    },
    {
        "city": "West Godavari",
        "state": "Andhra Pradesh",
        "lat": 16.6443,
        "lon": 81.5885,
        "zone": "inland_central"
    },
    {
        "city": "YSR Kadapa",
        "state": "Andhra Pradesh",
        "lat": 14.5396,
        "lon": 78.6582,
        "zone": "inland_south"
    },
    {
        "city": "West Kameng",
        "state": "Arunachal Pradesh",
        "lat": 27.2916,
        "lon": 92.4619,
        "zone": "inland_northeast"
    },
    {
        "city": "East Kameng",
        "state": "Arunachal Pradesh",
        "lat": 27.5578,
        "lon": 93.0753,
        "zone": "inland_northeast"
    },
    {
        "city": "Papum Pare",
        "state": "Arunachal Pradesh",
        "lat": 27.2864,
        "lon": 93.6188,
        "zone": "inland_northeast"
    },
    {
        "city": "Kurung Kumey",
        "state": "Arunachal Pradesh",
        "lat": 27.9864,
        "lon": 93.1578,
        "zone": "inland_northeast"
    },
    {
        "city": "Kra Daadi",
        "state": "Arunachal Pradesh",
        "lat": 27.9635,
        "lon": 93.7666,
        "zone": "inland_northeast"
    },
    {
        "city": "Lower Subansiri",
        "state": "Arunachal Pradesh",
        "lat": 27.5326,
        "lon": 93.7823,
        "zone": "inland_northeast"
    },
    {
        "city": "Upper Subansiri",
        "state": "Arunachal Pradesh",
        "lat": 28.2596,
        "lon": 94.0938,
        "zone": "inland_northeast"
    },
    {
        "city": "West Siang",
        "state": "Arunachal Pradesh",
        "lat": 28.1971,
        "lon": 94.4841,
        "zone": "inland_northeast"
    },
    {
        "city": "East Siang",
        "state": "Arunachal Pradesh",
        "lat": 28.0742,
        "lon": 95.4178,
        "zone": "inland_northeast"
    },
    {
        "city": "Siang",
        "state": "Arunachal Pradesh",
        "lat": 28.4775,
        "lon": 94.8166,
        "zone": "inland_northeast"
    },
    {
        "city": "Upper Siang",
        "state": "Arunachal Pradesh",
        "lat": 28.7312,
        "lon": 95.0377,
        "zone": "himalayan"
    },
    {
        "city": "Lower Siang",
        "state": "Arunachal Pradesh",
        "lat": 27.8007,
        "lon": 94.565,
        "zone": "inland_northeast"
    },
    {
        "city": "Lower Dibang Valley",
        "state": "Arunachal Pradesh",
        "lat": 28.215,
        "lon": 95.8788,
        "zone": "inland_northeast"
    },
    {
        "city": "Dibang Valley",
        "state": "Arunachal Pradesh",
        "lat": 28.8291,
        "lon": 95.9554,
        "zone": "himalayan"
    },
    {
        "city": "Anjaw",
        "state": "Arunachal Pradesh",
        "lat": 28.1167,
        "lon": 96.8199,
        "zone": "inland_northeast"
    },
    {
        "city": "Lohit",
        "state": "Arunachal Pradesh",
        "lat": 28.035,
        "lon": 96.1714,
        "zone": "inland_northeast"
    },
    {
        "city": "Namsai",
        "state": "Arunachal Pradesh",
        "lat": 27.714,
        "lon": 96.016,
        "zone": "inland_northeast"
    },
    {
        "city": "Changlang",
        "state": "Arunachal Pradesh",
        "lat": 27.2699,
        "lon": 96.0602,
        "zone": "inland_northeast"
    },
    {
        "city": "Tirap",
        "state": "Arunachal Pradesh",
        "lat": 27.0302,
        "lon": 95.4979,
        "zone": "inland_northeast"
    },
    {
        "city": "Longding",
        "state": "Arunachal Pradesh",
        "lat": 26.8795,
        "lon": 95.3156,
        "zone": "inland_northeast"
    },
    {
        "city": "Baksa",
        "state": "Assam",
        "lat": 26.6276,
        "lon": 91.3389,
        "zone": "inland_northeast"
    },
    {
        "city": "Barpeta",
        "state": "Assam",
        "lat": 26.3459,
        "lon": 91.0397,
        "zone": "inland_northeast"
    },
    {
        "city": "Biswanath",
        "state": "Assam",
        "lat": 26.7939,
        "lon": 93.3592,
        "zone": "inland_northeast"
    },
    {
        "city": "Cachar",
        "state": "Assam",
        "lat": 24.7586,
        "lon": 92.8817,
        "zone": "inland_northeast"
    },
    {
        "city": "Charaideo",
        "state": "Assam",
        "lat": 27.0697,
        "lon": 95.0642,
        "zone": "inland_northeast"
    },
    {
        "city": "Chirang",
        "state": "Assam",
        "lat": 26.6464,
        "lon": 90.6242,
        "zone": "inland_northeast"
    },
    {
        "city": "Darrang",
        "state": "Assam",
        "lat": 26.4373,
        "lon": 92.0047,
        "zone": "inland_northeast"
    },
    {
        "city": "Dhemaji",
        "state": "Assam",
        "lat": 27.5945,
        "lon": 94.7192,
        "zone": "inland_northeast"
    },
    {
        "city": "Dhubri",
        "state": "Assam",
        "lat": 26.1323,
        "lon": 90.125,
        "zone": "inland_northeast"
    },
    {
        "city": "Goalpara",
        "state": "Assam",
        "lat": 26.0492,
        "lon": 90.6002,
        "zone": "inland_northeast"
    },
    {
        "city": "Golaghat",
        "state": "Assam",
        "lat": 26.5108,
        "lon": 93.9744,
        "zone": "inland_northeast"
    },
    {
        "city": "Hailakandi",
        "state": "Assam",
        "lat": 24.6847,
        "lon": 92.5646,
        "zone": "inland_northeast"
    },
    {
        "city": "Hojai",
        "state": "Assam",
        "lat": 25.9629,
        "lon": 92.9818,
        "zone": "inland_northeast"
    },
    {
        "city": "Kamrup Metropolitan",
        "state": "Assam",
        "lat": 26.1353,
        "lon": 91.8617,
        "zone": "inland_northeast"
    },
    {
        "city": "Kamrup",
        "state": "Assam",
        "lat": 26.1469,
        "lon": 91.2227,
        "zone": "inland_northeast"
    },
    {
        "city": "Karbi Anglong",
        "state": "Assam",
        "lat": 26.0713,
        "lon": 93.4553,
        "zone": "inland_northeast"
    },
    {
        "city": "Karimganj",
        "state": "Assam",
        "lat": 24.5828,
        "lon": 92.3725,
        "zone": "inland_northeast"
    },
    {
        "city": "Kokrajhar",
        "state": "Assam",
        "lat": 26.4912,
        "lon": 90.1215,
        "zone": "inland_northeast"
    },
    {
        "city": "Lakhimpur",
        "state": "Assam",
        "lat": 27.1763,
        "lon": 94.1993,
        "zone": "inland_northeast"
    },
    {
        "city": "Majuli",
        "state": "Assam",
        "lat": 27.022,
        "lon": 94.3274,
        "zone": "inland_northeast"
    },
    {
        "city": "Morigaon",
        "state": "Assam",
        "lat": 26.2552,
        "lon": 92.3286,
        "zone": "inland_northeast"
    },
    {
        "city": "Nalbari",
        "state": "Assam",
        "lat": 26.3534,
        "lon": 91.3984,
        "zone": "inland_northeast"
    },
    {
        "city": "Dima Hasao",
        "state": "Assam",
        "lat": 25.4004,
        "lon": 93.0752,
        "zone": "inland_northeast"
    },
    {
        "city": "Sivasagar",
        "state": "Assam",
        "lat": 26.9835,
        "lon": 94.6394,
        "zone": "inland_northeast"
    },
    {
        "city": "Sonitpur",
        "state": "Assam",
        "lat": 26.7678,
        "lon": 92.7014,
        "zone": "inland_northeast"
    },
    {
        "city": "South Salmara-Mankachar",
        "state": "Assam",
        "lat": 25.7604,
        "lon": 89.8928,
        "zone": "inland_northeast"
    },
    {
        "city": "Udalguri",
        "state": "Assam",
        "lat": 26.7047,
        "lon": 92.0422,
        "zone": "inland_northeast"
    },
    {
        "city": "West Karbi Anglong",
        "state": "Assam",
        "lat": 25.8529,
        "lon": 92.5876,
        "zone": "inland_northeast"
    },
    {
        "city": "Araria",
        "state": "Bihar",
        "lat": 26.1346,
        "lon": 87.4654,
        "zone": "inland_northeast"
    },
    {
        "city": "Arwal",
        "state": "Bihar",
        "lat": 25.1813,
        "lon": 84.6597,
        "zone": "inland_central"
    },
    {
        "city": "Banka",
        "state": "Bihar",
        "lat": 24.8328,
        "lon": 86.8161,
        "zone": "inland_northeast"
    },
    {
        "city": "Bhojpur",
        "state": "Bihar",
        "lat": 25.4501,
        "lon": 84.5635,
        "zone": "inland_central"
    },
    {
        "city": "Buxar",
        "state": "Bihar",
        "lat": 25.5045,
        "lon": 84.1098,
        "zone": "inland_central"
    },
    {
        "city": "East Champaran (Motihari)",
        "state": "Bihar",
        "lat": 26.6147,
        "lon": 84.9144,
        "zone": "inland_north"
    },
    {
        "city": "Gopalganj",
        "state": "Bihar",
        "lat": 26.4211,
        "lon": 84.3739,
        "zone": "inland_north"
    },
    {
        "city": "Jamui",
        "state": "Bihar",
        "lat": 24.7563,
        "lon": 86.3011,
        "zone": "inland_northeast"
    },
    {
        "city": "Jehanabad",
        "state": "Bihar",
        "lat": 25.153,
        "lon": 85.0065,
        "zone": "inland_northeast"
    },
    {
        "city": "Kaimur (Bhabua)",
        "state": "Bihar",
        "lat": 25.0403,
        "lon": 83.6076,
        "zone": "inland_central"
    },
    {
        "city": "Katihar",
        "state": "Bihar",
        "lat": 25.5586,
        "lon": 87.6457,
        "zone": "inland_northeast"
    },
    {
        "city": "Khagaria",
        "state": "Bihar",
        "lat": 25.4931,
        "lon": 86.6982,
        "zone": "inland_northeast"
    },
    {
        "city": "Kishanganj",
        "state": "Bihar",
        "lat": 26.2984,
        "lon": 87.9467,
        "zone": "inland_northeast"
    },
    {
        "city": "Lakhisarai",
        "state": "Bihar",
        "lat": 25.1544,
        "lon": 86.1745,
        "zone": "inland_northeast"
    },
    {
        "city": "Madhepura",
        "state": "Bihar",
        "lat": 25.7806,
        "lon": 86.9365,
        "zone": "inland_northeast"
    },
    {
        "city": "Madhubani",
        "state": "Bihar",
        "lat": 26.3503,
        "lon": 86.2296,
        "zone": "inland_northeast"
    },
    {
        "city": "Munger (Monghyr)",
        "state": "Bihar",
        "lat": 25.317,
        "lon": 86.4971,
        "zone": "inland_northeast"
    },
    {
        "city": "Nalanda",
        "state": "Bihar",
        "lat": 25.1365,
        "lon": 85.4437,
        "zone": "inland_northeast"
    },
    {
        "city": "Nawada",
        "state": "Bihar",
        "lat": 24.8173,
        "lon": 85.5179,
        "zone": "inland_northeast"
    },
    {
        "city": "Purnia (Purnea)",
        "state": "Bihar",
        "lat": 25.7774,
        "lon": 87.4731,
        "zone": "inland_northeast"
    },
    {
        "city": "Rohtas",
        "state": "Bihar",
        "lat": 24.9394,
        "lon": 84.0197,
        "zone": "inland_central"
    },
    {
        "city": "Saharsa",
        "state": "Bihar",
        "lat": 25.8331,
        "lon": 86.6144,
        "zone": "inland_northeast"
    },
    {
        "city": "Samastipur",
        "state": "Bihar",
        "lat": 25.7748,
        "lon": 85.8672,
        "zone": "inland_northeast"
    },
    {
        "city": "Saran",
        "state": "Bihar",
        "lat": 25.9214,
        "lon": 84.776,
        "zone": "inland_central"
    },
    {
        "city": "Sheikhpura",
        "state": "Bihar",
        "lat": 25.1251,
        "lon": 85.8161,
        "zone": "inland_northeast"
    },
    {
        "city": "Sheohar",
        "state": "Bihar",
        "lat": 26.4934,
        "lon": 85.2718,
        "zone": "inland_northeast"
    },
    {
        "city": "Sitamarhi",
        "state": "Bihar",
        "lat": 26.5943,
        "lon": 85.5004,
        "zone": "inland_northeast"
    },
    {
        "city": "Siwan",
        "state": "Bihar",
        "lat": 26.131,
        "lon": 84.3911,
        "zone": "inland_north"
    },
    {
        "city": "Supaul",
        "state": "Bihar",
        "lat": 26.2768,
        "lon": 86.796,
        "zone": "inland_northeast"
    },
    {
        "city": "Vaishali",
        "state": "Bihar",
        "lat": 25.7492,
        "lon": 85.3972,
        "zone": "inland_northeast"
    },
    {
        "city": "West Champaran",
        "state": "Bihar",
        "lat": 27.0518,
        "lon": 84.3351,
        "zone": "inland_north"
    },
    {
        "city": "Balod",
        "state": "Chhattisgarh",
        "lat": 20.7277,
        "lon": 81.1447,
        "zone": "inland_central"
    },
    {
        "city": "Baloda Bazar",
        "state": "Chhattisgarh",
        "lat": 21.5732,
        "lon": 82.2995,
        "zone": "inland_central"
    },
    {
        "city": "Balrampur",
        "state": "Chhattisgarh",
        "lat": 23.6283,
        "lon": 83.4811,
        "zone": "inland_central"
    },
    {
        "city": "Bastar",
        "state": "Chhattisgarh",
        "lat": 19.1191,
        "lon": 81.8292,
        "zone": "inland_central"
    },
    {
        "city": "Bemetara",
        "state": "Chhattisgarh",
        "lat": 21.6784,
        "lon": 81.4413,
        "zone": "inland_central"
    },
    {
        "city": "Dhamtari",
        "state": "Chhattisgarh",
        "lat": 20.5326,
        "lon": 81.7156,
        "zone": "inland_central"
    },
    {
        "city": "Gariyaband",
        "state": "Chhattisgarh",
        "lat": 20.5268,
        "lon": 82.1917,
        "zone": "inland_central"
    },
    {
        "city": "Janjgir-Champa",
        "state": "Chhattisgarh",
        "lat": 21.9864,
        "lon": 82.5537,
        "zone": "inland_central"
    },
    {
        "city": "Jashpur",
        "state": "Chhattisgarh",
        "lat": 22.7703,
        "lon": 83.9708,
        "zone": "inland_central"
    },
    {
        "city": "Kabirdham (Kawardha)",
        "state": "Chhattisgarh",
        "lat": 22.0018,
        "lon": 81.2432,
        "zone": "inland_central"
    },
    {
        "city": "Kondagaon",
        "state": "Chhattisgarh",
        "lat": 19.5886,
        "lon": 81.6629,
        "zone": "inland_central"
    },
    {
        "city": "Korea (Koriya)",
        "state": "Chhattisgarh",
        "lat": 23.2601,
        "lon": 82.5646,
        "zone": "inland_central"
    },
    {
        "city": "Mahasamund",
        "state": "Chhattisgarh",
        "lat": 21.1923,
        "lon": 82.489,
        "zone": "inland_central"
    },
    {
        "city": "Mungeli",
        "state": "Chhattisgarh",
        "lat": 22.0661,
        "lon": 81.6874,
        "zone": "inland_central"
    },
    {
        "city": "Narayanpur",
        "state": "Chhattisgarh",
        "lat": 19.5842,
        "lon": 81.1137,
        "zone": "inland_central"
    },
    {
        "city": "Rajnandgaon",
        "state": "Chhattisgarh",
        "lat": 21.0684,
        "lon": 80.7971,
        "zone": "inland_central"
    },
    {
        "city": "Sukma",
        "state": "Chhattisgarh",
        "lat": 18.2665,
        "lon": 81.2925,
        "zone": "inland_central"
    },
    {
        "city": "Surajpur  ",
        "state": "Chhattisgarh",
        "lat": 23.3578,
        "lon": 82.9761,
        "zone": "inland_central"
    },
    {
        "city": "Surguja",
        "state": "Chhattisgarh",
        "lat": 22.9469,
        "lon": 83.1657,
        "zone": "inland_central"
    },
    {
        "city": "Dadra & Nagar Haveli",
        "state": "Dadra and Nagar Haveli (UT)",
        "lat": 20.2338,
        "lon": 73.0495,
        "zone": "coastal_west"
    },
    {
        "city": "Daman",
        "state": "Daman and Diu (UT)",
        "lat": 20.417,
        "lon": 72.8332,
        "zone": "coastal_west"
    },
    {
        "city": "Diu",
        "state": "Daman and Diu (UT)",
        "lat": 20.7138,
        "lon": 70.9854,
        "zone": "coastal_west"
    },
    {
        "city": "Central Delhi",
        "state": "Delhi (NCT)",
        "lat": 28.699,
        "lon": 77.2315,
        "zone": "himalayan"
    },
    {
        "city": "East Delhi",
        "state": "Delhi (NCT)",
        "lat": 28.6117,
        "lon": 77.2983,
        "zone": "himalayan"
    },
    {
        "city": "New Delhi",
        "state": "Delhi (NCT)",
        "lat": 28.6139,
        "lon": 77.209,
        "zone": "himalayan"
    },
    {
        "city": "North Delhi",
        "state": "Delhi (NCT)",
        "lat": 28.7872,
        "lon": 77.0981,
        "zone": "himalayan"
    },
    {
        "city": "North East  Delhi",
        "state": "Delhi (NCT)",
        "lat": 28.7233,
        "lon": 77.2669,
        "zone": "himalayan"
    },
    {
        "city": "North West  Delhi",
        "state": "Delhi (NCT)",
        "lat": 28.7379,
        "lon": 77.0101,
        "zone": "himalayan"
    },
    {
        "city": "Shahdara",
        "state": "Delhi (NCT)",
        "lat": 28.6759,
        "lon": 77.2985,
        "zone": "himalayan"
    },
    {
        "city": "South Delhi",
        "state": "Delhi (NCT)",
        "lat": 28.4852,
        "lon": 77.1964,
        "zone": "inland_west"
    },
    {
        "city": "South East Delhi",
        "state": "Delhi (NCT)",
        "lat": 28.5449,
        "lon": 77.2723,
        "zone": "himalayan"
    },
    {
        "city": "South West  Delhi",
        "state": "Delhi (NCT)",
        "lat": 28.5864,
        "lon": 76.9792,
        "zone": "himalayan"
    },
    {
        "city": "West Delhi",
        "state": "Delhi (NCT)",
        "lat": 28.6545,
        "lon": 77.0811,
        "zone": "himalayan"
    },
    {
        "city": "North Goa",
        "state": "Goa",
        "lat": 15.6039,
        "lon": 73.9967,
        "zone": "inland_west"
    },
    {
        "city": "South Goa",
        "state": "Goa",
        "lat": 15.2197,
        "lon": 74.1147,
        "zone": "inland_west"
    },
    {
        "city": "Amreli",
        "state": "Gujarat",
        "lat": 21.4176,
        "lon": 71.2496,
        "zone": "coastal_west"
    },
    {
        "city": "Aravalli",
        "state": "Gujarat",
        "lat": 23.4843,
        "lon": 73.3986,
        "zone": "coastal_west"
    },
    {
        "city": "Banaskantha (Palanpur)",
        "state": "Gujarat",
        "lat": 24.1857,
        "lon": 72.4347,
        "zone": "coastal_west"
    },
    {
        "city": "Botad",
        "state": "Gujarat",
        "lat": 22.0467,
        "lon": 71.669,
        "zone": "coastal_west"
    },
    {
        "city": "Chhota Udepur",
        "state": "Gujarat",
        "lat": 22.3149,
        "lon": 74.0141,
        "zone": "inland_west"
    },
    {
        "city": "Dahod",
        "state": "Gujarat",
        "lat": 22.9194,
        "lon": 74.1343,
        "zone": "inland_west"
    },
    {
        "city": "Devbhoomi Dwarka",
        "state": "Gujarat",
        "lat": 22.236,
        "lon": 68.9659,
        "zone": "coastal_west"
    },
    {
        "city": "Gir Somnath",
        "state": "Gujarat",
        "lat": 20.9298,
        "lon": 70.7628,
        "zone": "coastal_west"
    },
    {
        "city": "Kachchh",
        "state": "Gujarat",
        "lat": 23.5833,
        "lon": 70.0,
        "zone": "coastal_west"
    },
    {
        "city": "Kheda (Nadiad)",
        "state": "Gujarat",
        "lat": 22.6976,
        "lon": 72.8528,
        "zone": "coastal_west"
    },
    {
        "city": "Mahisagar",
        "state": "Gujarat",
        "lat": 23.1912,
        "lon": 73.6644,
        "zone": "inland_west"
    },
    {
        "city": "Mehsana",
        "state": "Gujarat",
        "lat": 23.6013,
        "lon": 72.3742,
        "zone": "coastal_west"
    },
    {
        "city": "Narmada (Rajpipla)",
        "state": "Gujarat",
        "lat": 21.8439,
        "lon": 73.5274,
        "zone": "inland_west"
    },
    {
        "city": "Panchmahal (Godhra)",
        "state": "Gujarat",
        "lat": 22.7755,
        "lon": 73.6213,
        "zone": "inland_west"
    },
    {
        "city": "Patan",
        "state": "Gujarat",
        "lat": 23.7738,
        "lon": 71.6799,
        "zone": "coastal_west"
    },
    {
        "city": "Porbandar",
        "state": "Gujarat",
        "lat": 21.603,
        "lon": 69.8538,
        "zone": "coastal_west"
    },
    {
        "city": "Sabarkantha (Himmatnagar)",
        "state": "Gujarat",
        "lat": 23.5949,
        "lon": 72.9606,
        "zone": "coastal_west"
    },
    {
        "city": "Surendranagar",
        "state": "Gujarat",
        "lat": 22.8251,
        "lon": 71.621,
        "zone": "coastal_west"
    },
    {
        "city": "Tapi (Vyara)",
        "state": "Gujarat",
        "lat": 21.1094,
        "lon": 73.3894,
        "zone": "coastal_west"
    },
    {
        "city": "Valsad",
        "state": "Gujarat",
        "lat": 20.4322,
        "lon": 73.141,
        "zone": "coastal_west"
    },
    {
        "city": "Bhiwani",
        "state": "Haryana",
        "lat": 28.7932,
        "lon": 76.1391,
        "zone": "himalayan"
    },
    {
        "city": "Charkhi Dadri",
        "state": "Haryana",
        "lat": 28.6001,
        "lon": 76.1124,
        "zone": "himalayan"
    },
    {
        "city": "Fatehabad",
        "state": "Haryana",
        "lat": 29.5359,
        "lon": 75.5753,
        "zone": "himalayan"
    },
    {
        "city": "Gurgaon",
        "state": "Haryana",
        "lat": 28.4646,
        "lon": 77.0299,
        "zone": "inland_west"
    },
    {
        "city": "Jhajjar",
        "state": "Haryana",
        "lat": 28.5964,
        "lon": 76.6505,
        "zone": "himalayan"
    },
    {
        "city": "Jind",
        "state": "Haryana",
        "lat": 29.3152,
        "lon": 76.3141,
        "zone": "himalayan"
    },
    {
        "city": "Kaithal",
        "state": "Haryana",
        "lat": 29.7997,
        "lon": 76.399,
        "zone": "himalayan"
    },
    {
        "city": "Kurukshetra",
        "state": "Haryana",
        "lat": 29.9694,
        "lon": 76.8483,
        "zone": "himalayan"
    },
    {
        "city": "Mahendragarh",
        "state": "Haryana",
        "lat": 28.1327,
        "lon": 76.1697,
        "zone": "inland_west"
    },
    {
        "city": "Mewat",
        "state": "Haryana",
        "lat": 27.9935,
        "lon": 77.042,
        "zone": "inland_west"
    },
    {
        "city": "Palwal",
        "state": "Haryana",
        "lat": 28.0599,
        "lon": 77.3223,
        "zone": "inland_west"
    },
    {
        "city": "Panchkula",
        "state": "Haryana",
        "lat": 30.6975,
        "lon": 76.8551,
        "zone": "himalayan"
    },
    {
        "city": "Rewari",
        "state": "Haryana",
        "lat": 28.1956,
        "lon": 76.6165,
        "zone": "inland_west"
    },
    {
        "city": "Sirsa",
        "state": "Haryana",
        "lat": 29.6063,
        "lon": 74.9037,
        "zone": "himalayan"
    },
    {
        "city": "Sonipat",
        "state": "Haryana",
        "lat": 28.9954,
        "lon": 77.0234,
        "zone": "himalayan"
    },
    {
        "city": "Hamirpur",
        "state": "Himachal Pradesh",
        "lat": 31.654,
        "lon": 76.5404,
        "zone": "himalayan"
    },
    {
        "city": "Kangra",
        "state": "Himachal Pradesh",
        "lat": 32.0769,
        "lon": 76.2986,
        "zone": "himalayan"
    },
    {
        "city": "Kinnaur",
        "state": "Himachal Pradesh",
        "lat": 31.593,
        "lon": 78.3281,
        "zone": "himalayan"
    },
    {
        "city": "Sirmaur (Sirmour)",
        "state": "Himachal Pradesh",
        "lat": 30.4915,
        "lon": 77.4695,
        "zone": "himalayan"
    },
    {
        "city": "Una",
        "state": "Himachal Pradesh",
        "lat": 31.5835,
        "lon": 76.2351,
        "zone": "himalayan"
    },
    {
        "city": "Anantnag",
        "state": "Jammu and Kashmir",
        "lat": 33.7461,
        "lon": 75.1854,
        "zone": "himalayan"
    },
    {
        "city": "Bandipore",
        "state": "Jammu and Kashmir",
        "lat": 34.4563,
        "lon": 74.6825,
        "zone": "himalayan"
    },
    {
        "city": "Baramulla",
        "state": "Jammu and Kashmir",
        "lat": 34.2087,
        "lon": 74.3435,
        "zone": "himalayan"
    },
    {
        "city": "Budgam",
        "state": "Jammu and Kashmir",
        "lat": 33.9099,
        "lon": 74.627,
        "zone": "himalayan"
    },
    {
        "city": "Doda",
        "state": "Jammu and Kashmir",
        "lat": 33.1326,
        "lon": 75.589,
        "zone": "himalayan"
    },
    {
        "city": "Ganderbal",
        "state": "Jammu and Kashmir",
        "lat": 34.2889,
        "lon": 75.0408,
        "zone": "himalayan"
    },
    {
        "city": "Kathua",
        "state": "Jammu and Kashmir",
        "lat": 32.3766,
        "lon": 75.5243,
        "zone": "himalayan"
    },
    {
        "city": "Kishtwar",
        "state": "Jammu and Kashmir",
        "lat": 33.3108,
        "lon": 75.7694,
        "zone": "himalayan"
    },
    {
        "city": "Kulgam",
        "state": "Jammu and Kashmir",
        "lat": 33.6447,
        "lon": 75.0188,
        "zone": "himalayan"
    },
    {
        "city": "Kupwara",
        "state": "Jammu and Kashmir",
        "lat": 34.5141,
        "lon": 74.1914,
        "zone": "himalayan"
    },
    {
        "city": "Poonch",
        "state": "Jammu and Kashmir",
        "lat": 33.767,
        "lon": 74.0957,
        "zone": "himalayan"
    },
    {
        "city": "Pulwama",
        "state": "Jammu and Kashmir",
        "lat": 33.949,
        "lon": 75.0418,
        "zone": "himalayan"
    },
    {
        "city": "Rajouri",
        "state": "Jammu and Kashmir",
        "lat": 33.3772,
        "lon": 74.3132,
        "zone": "himalayan"
    },
    {
        "city": "Ramban",
        "state": "Jammu and Kashmir",
        "lat": 33.2116,
        "lon": 75.2051,
        "zone": "himalayan"
    },
    {
        "city": "Reasi",
        "state": "Jammu and Kashmir",
        "lat": 33.0691,
        "lon": 74.8379,
        "zone": "himalayan"
    },
    {
        "city": "Samba",
        "state": "Jammu and Kashmir",
        "lat": 32.5759,
        "lon": 75.1203,
        "zone": "himalayan"
    },
    {
        "city": "Shopian",
        "state": "Jammu and Kashmir",
        "lat": 33.7188,
        "lon": 74.8333,
        "zone": "himalayan"
    },
    {
        "city": "Udhampur",
        "state": "Jammu and Kashmir",
        "lat": 32.922,
        "lon": 75.1331,
        "zone": "himalayan"
    },
    {
        "city": "Chatra",
        "state": "Jharkhand",
        "lat": 24.1062,
        "lon": 84.8623,
        "zone": "inland_central"
    },
    {
        "city": "Dumka",
        "state": "Jharkhand",
        "lat": 24.2678,
        "lon": 87.2485,
        "zone": "inland_northeast"
    },
    {
        "city": "East Singhbhum",
        "state": "Jharkhand",
        "lat": 22.6132,
        "lon": 86.3819,
        "zone": "inland_northeast"
    },
    {
        "city": "Garhwa",
        "state": "Jharkhand",
        "lat": 24.0536,
        "lon": 83.6527,
        "zone": "inland_central"
    },
    {
        "city": "Godda",
        "state": "Jharkhand",
        "lat": 24.8646,
        "lon": 87.2985,
        "zone": "inland_northeast"
    },
    {
        "city": "Gumla",
        "state": "Jharkhand",
        "lat": 23.1604,
        "lon": 84.46,
        "zone": "inland_central"
    },
    {
        "city": "Hazaribag",
        "state": "Jharkhand",
        "lat": 23.9924,
        "lon": 85.3616,
        "zone": "inland_northeast"
    },
    {
        "city": "Jamtara",
        "state": "Jharkhand",
        "lat": 23.9802,
        "lon": 86.9244,
        "zone": "inland_northeast"
    },
    {
        "city": "Khunti",
        "state": "Jharkhand",
        "lat": 22.9282,
        "lon": 85.2814,
        "zone": "inland_northeast"
    },
    {
        "city": "Koderma",
        "state": "Jharkhand",
        "lat": 24.4931,
        "lon": 85.5561,
        "zone": "inland_northeast"
    },
    {
        "city": "Latehar",
        "state": "Jharkhand",
        "lat": 23.688,
        "lon": 84.497,
        "zone": "inland_central"
    },
    {
        "city": "Lohardaga",
        "state": "Jharkhand",
        "lat": 23.477,
        "lon": 84.6987,
        "zone": "inland_central"
    },
    {
        "city": "Pakur",
        "state": "Jharkhand",
        "lat": 24.5326,
        "lon": 87.5932,
        "zone": "inland_northeast"
    },
    {
        "city": "Palamu",
        "state": "Jharkhand",
        "lat": 24.2213,
        "lon": 84.1726,
        "zone": "inland_central"
    },
    {
        "city": "Ramgarh",
        "state": "Jharkhand",
        "lat": 23.6935,
        "lon": 85.5216,
        "zone": "inland_northeast"
    },
    {
        "city": "Sahibganj",
        "state": "Jharkhand",
        "lat": 25.032,
        "lon": 87.6918,
        "zone": "inland_northeast"
    },
    {
        "city": "Seraikela-Kharsawan",
        "state": "Jharkhand",
        "lat": 22.8232,
        "lon": 85.9197,
        "zone": "inland_northeast"
    },
    {
        "city": "Simdega",
        "state": "Jharkhand",
        "lat": 22.5905,
        "lon": 84.5465,
        "zone": "inland_central"
    },
    {
        "city": "West Singhbhum",
        "state": "Jharkhand",
        "lat": 22.4283,
        "lon": 85.5317,
        "zone": "inland_northeast"
    },
    {
        "city": "Bagalkot",
        "state": "Karnataka",
        "lat": 16.1793,
        "lon": 75.6999,
        "zone": "inland_west"
    },
    {
        "city": "Ballari (Bellary)",
        "state": "Karnataka",
        "lat": 15.1681,
        "lon": 76.866,
        "zone": "inland_west"
    },
    {
        "city": "Belagavi (Belgaum)",
        "state": "Karnataka",
        "lat": 15.8506,
        "lon": 74.5069,
        "zone": "inland_west"
    },
    {
        "city": "Bengaluru (Bangalore) Rural",
        "state": "Karnataka",
        "lat": 13.1149,
        "lon": 77.3826,
        "zone": "inland_south"
    },
    {
        "city": "Bengaluru (Bangalore) Urban",
        "state": "Karnataka",
        "lat": 13.0222,
        "lon": 77.5672,
        "zone": "inland_south"
    },
    {
        "city": "Bidar",
        "state": "Karnataka",
        "lat": 18.0207,
        "lon": 77.2487,
        "zone": "inland_west"
    },
    {
        "city": "Chamarajanagar",
        "state": "Karnataka",
        "lat": 11.9544,
        "lon": 77.1069,
        "zone": "inland_south"
    },
    {
        "city": "Chikballapur",
        "state": "Karnataka",
        "lat": 13.4274,
        "lon": 77.7321,
        "zone": "inland_south"
    },
    {
        "city": "Chikkamagaluru (Chikmagalur)",
        "state": "Karnataka",
        "lat": 13.3259,
        "lon": 75.7721,
        "zone": "inland_south"
    },
    {
        "city": "Chitradurga",
        "state": "Karnataka",
        "lat": 14.3049,
        "lon": 76.5297,
        "zone": "inland_south"
    },
    {
        "city": "Dakshina Kannada",
        "state": "Karnataka",
        "lat": 12.8226,
        "lon": 75.2265,
        "zone": "inland_south"
    },
    {
        "city": "Davangere",
        "state": "Karnataka",
        "lat": 14.4661,
        "lon": 75.9206,
        "zone": "inland_south"
    },
    {
        "city": "Dharwad",
        "state": "Karnataka",
        "lat": 15.3707,
        "lon": 75.1333,
        "zone": "inland_west"
    },
    {
        "city": "Gadag",
        "state": "Karnataka",
        "lat": 15.4167,
        "lon": 75.6816,
        "zone": "inland_west"
    },
    {
        "city": "Hassan",
        "state": "Karnataka",
        "lat": 13.0302,
        "lon": 76.1745,
        "zone": "inland_south"
    },
    {
        "city": "Haveri",
        "state": "Karnataka",
        "lat": 14.718,
        "lon": 75.3656,
        "zone": "inland_south"
    },
    {
        "city": "Kalaburagi (Gulbarga)",
        "state": "Karnataka",
        "lat": 17.3258,
        "lon": 76.8576,
        "zone": "inland_west"
    },
    {
        "city": "Kodagu",
        "state": "Karnataka",
        "lat": 12.3827,
        "lon": 75.6641,
        "zone": "inland_south"
    },
    {
        "city": "Kolar",
        "state": "Karnataka",
        "lat": 13.1805,
        "lon": 78.2669,
        "zone": "inland_south"
    },
    {
        "city": "Koppal",
        "state": "Karnataka",
        "lat": 15.5748,
        "lon": 76.3118,
        "zone": "inland_west"
    },
    {
        "city": "Mandya",
        "state": "Karnataka",
        "lat": 12.6369,
        "lon": 76.7275,
        "zone": "inland_south"
    },
    {
        "city": "Mysuru (Mysore)",
        "state": "Karnataka",
        "lat": 12.3139,
        "lon": 76.6563,
        "zone": "inland_south"
    },
    {
        "city": "Raichur",
        "state": "Karnataka",
        "lat": 16.0547,
        "lon": 76.9004,
        "zone": "inland_west"
    },
    {
        "city": "Ramanagara",
        "state": "Karnataka",
        "lat": 12.72,
        "lon": 77.3184,
        "zone": "inland_south"
    },
    {
        "city": "Shivamogga (Shimoga)",
        "state": "Karnataka",
        "lat": 13.9015,
        "lon": 75.615,
        "zone": "inland_south"
    },
    {
        "city": "Tumakuru (Tumkur)",
        "state": "Karnataka",
        "lat": 13.3298,
        "lon": 77.1168,
        "zone": "inland_south"
    },
    {
        "city": "Udupi",
        "state": "Karnataka",
        "lat": 13.527,
        "lon": 74.8732,
        "zone": "inland_south"
    },
    {
        "city": "Uttara Kannada (Karwar)",
        "state": "Karnataka",
        "lat": 14.8633,
        "lon": 74.4337,
        "zone": "inland_south"
    },
    {
        "city": "Vijayapura (Bijapur)",
        "state": "Karnataka",
        "lat": 16.855,
        "lon": 75.7192,
        "zone": "inland_west"
    },
    {
        "city": "Yadgir",
        "state": "Karnataka",
        "lat": 16.5744,
        "lon": 76.9254,
        "zone": "inland_west"
    },
    {
        "city": "Ernakulam",
        "state": "Kerala",
        "lat": 10.0384,
        "lon": 76.5074,
        "zone": "inland_south"
    },
    {
        "city": "Idukki",
        "state": "Kerala",
        "lat": 9.8155,
        "lon": 76.9992,
        "zone": "inland_south"
    },
    {
        "city": "Kasaragod",
        "state": "Kerala",
        "lat": 12.4222,
        "lon": 75.1904,
        "zone": "inland_south"
    },
    {
        "city": "Malappuram",
        "state": "Kerala",
        "lat": 11.1068,
        "lon": 76.11,
        "zone": "inland_south"
    },
    {
        "city": "Pathanamthitta",
        "state": "Kerala",
        "lat": 9.2781,
        "lon": 76.9737,
        "zone": "inland_south"
    },
    {
        "city": "Wayanad",
        "state": "Kerala",
        "lat": 11.7151,
        "lon": 76.1271,
        "zone": "inland_south"
    },
    {
        "city": "Agatti",
        "state": "Lakshadweep (UT)",
        "lat": 10.9479,
        "lon": 72.3177,
        "zone": "coastal_west"
    },
    {
        "city": "Amini",
        "state": "Lakshadweep (UT)",
        "lat": 11.1239,
        "lon": 72.7233,
        "zone": "coastal_west"
    },
    {
        "city": "Androth",
        "state": "Lakshadweep (UT)",
        "lat": 10.8132,
        "lon": 73.6805,
        "zone": "inland_south"
    },
    {
        "city": "Bithra",
        "state": "Lakshadweep (UT)",
        "lat": 25.0848,
        "lon": 84.807,
        "zone": "inland_central"
    },
    {
        "city": "Kavaratti",
        "state": "Lakshadweep (UT)",
        "lat": 10.5672,
        "lon": 72.6395,
        "zone": "coastal_west"
    },
    {
        "city": "Kadmath",
        "state": "Lakshadweep (UT)",
        "lat": 11.2248,
        "lon": 72.7752,
        "zone": "coastal_west"
    },
    {
        "city": "Kalpeni",
        "state": "Lakshadweep (UT)",
        "lat": 10.0726,
        "lon": 73.6436,
        "zone": "inland_south"
    },
    {
        "city": "Minicoy",
        "state": "Lakshadweep (UT)",
        "lat": 8.2952,
        "lon": 73.0648,
        "zone": "coastal_west"
    },
    {
        "city": "Agar Malwa",
        "state": "Madhya Pradesh",
        "lat": 23.9351,
        "lon": 76.145,
        "zone": "inland_west"
    },
    {
        "city": "Alirajpur",
        "state": "Madhya Pradesh",
        "lat": 22.286,
        "lon": 74.3546,
        "zone": "inland_west"
    },
    {
        "city": "Anuppur",
        "state": "Madhya Pradesh",
        "lat": 23.0346,
        "lon": 81.751,
        "zone": "inland_central"
    },
    {
        "city": "Ashoknagar",
        "state": "Madhya Pradesh",
        "lat": 24.6186,
        "lon": 77.8787,
        "zone": "inland_central"
    },
    {
        "city": "Balaghat",
        "state": "Madhya Pradesh",
        "lat": 21.8612,
        "lon": 80.3237,
        "zone": "inland_central"
    },
    {
        "city": "Barwani",
        "state": "Madhya Pradesh",
        "lat": 21.7514,
        "lon": 74.8916,
        "zone": "inland_west"
    },
    {
        "city": "Betul",
        "state": "Madhya Pradesh",
        "lat": 21.8797,
        "lon": 77.8754,
        "zone": "inland_central"
    },
    {
        "city": "Bhind",
        "state": "Madhya Pradesh",
        "lat": 26.3519,
        "lon": 78.6863,
        "zone": "inland_north"
    },
    {
        "city": "Burhanpur",
        "state": "Madhya Pradesh",
        "lat": 21.3349,
        "lon": 76.3709,
        "zone": "inland_west"
    },
    {
        "city": "Chhatarpur",
        "state": "Madhya Pradesh",
        "lat": 24.7606,
        "lon": 79.6782,
        "zone": "inland_central"
    },
    {
        "city": "Chhindwara",
        "state": "Madhya Pradesh",
        "lat": 22.2072,
        "lon": 78.7988,
        "zone": "inland_central"
    },
    {
        "city": "Damoh",
        "state": "Madhya Pradesh",
        "lat": 23.7981,
        "lon": 79.5419,
        "zone": "inland_central"
    },
    {
        "city": "Datia",
        "state": "Madhya Pradesh",
        "lat": 25.9183,
        "lon": 78.6645,
        "zone": "inland_central"
    },
    {
        "city": "Dhar",
        "state": "Madhya Pradesh",
        "lat": 22.5787,
        "lon": 75.2259,
        "zone": "inland_west"
    },
    {
        "city": "Dindori",
        "state": "Madhya Pradesh",
        "lat": 22.9071,
        "lon": 80.8847,
        "zone": "inland_central"
    },
    {
        "city": "Guna",
        "state": "Madhya Pradesh",
        "lat": 24.5002,
        "lon": 77.2601,
        "zone": "inland_west"
    },
    {
        "city": "Harda",
        "state": "Madhya Pradesh",
        "lat": 22.2428,
        "lon": 77.1179,
        "zone": "inland_west"
    },
    {
        "city": "Hoshangabad",
        "state": "Madhya Pradesh",
        "lat": 22.7546,
        "lon": 77.7198,
        "zone": "inland_central"
    },
    {
        "city": "Jhabua",
        "state": "Madhya Pradesh",
        "lat": 22.887,
        "lon": 74.7243,
        "zone": "inland_west"
    },
    {
        "city": "Katni",
        "state": "Madhya Pradesh",
        "lat": 23.7176,
        "lon": 80.261,
        "zone": "inland_central"
    },
    {
        "city": "Khandwa",
        "state": "Madhya Pradesh",
        "lat": 21.977,
        "lon": 76.5675,
        "zone": "inland_west"
    },
    {
        "city": "Khargone",
        "state": "Madhya Pradesh",
        "lat": 21.9545,
        "lon": 75.7521,
        "zone": "inland_west"
    },
    {
        "city": "Mandla",
        "state": "Madhya Pradesh",
        "lat": 22.6871,
        "lon": 80.5816,
        "zone": "inland_central"
    },
    {
        "city": "Mandsaur",
        "state": "Madhya Pradesh",
        "lat": 24.2628,
        "lon": 75.3857,
        "zone": "inland_west"
    },
    {
        "city": "Morena",
        "state": "Madhya Pradesh",
        "lat": 26.385,
        "lon": 77.8613,
        "zone": "inland_north"
    },
    {
        "city": "Narsinghpur",
        "state": "Madhya Pradesh",
        "lat": 22.9346,
        "lon": 79.0868,
        "zone": "inland_central"
    },
    {
        "city": "Neemuch",
        "state": "Madhya Pradesh",
        "lat": 24.6306,
        "lon": 75.1829,
        "zone": "inland_west"
    },
    {
        "city": "Panna",
        "state": "Madhya Pradesh",
        "lat": 24.4499,
        "lon": 80.1463,
        "zone": "inland_central"
    },
    {
        "city": "Raisen",
        "state": "Madhya Pradesh",
        "lat": 23.2676,
        "lon": 78.1727,
        "zone": "inland_central"
    },
    {
        "city": "Rajgarh",
        "state": "Madhya Pradesh",
        "lat": 23.8717,
        "lon": 76.7745,
        "zone": "inland_west"
    },
    {
        "city": "Sehore",
        "state": "Madhya Pradesh",
        "lat": 23.115,
        "lon": 77.0665,
        "zone": "inland_west"
    },
    {
        "city": "Seoni",
        "state": "Madhya Pradesh",
        "lat": 22.2748,
        "lon": 79.7203,
        "zone": "inland_central"
    },
    {
        "city": "Shahdol",
        "state": "Madhya Pradesh",
        "lat": 23.3002,
        "lon": 81.3648,
        "zone": "inland_central"
    },
    {
        "city": "Shajapur",
        "state": "Madhya Pradesh",
        "lat": 23.4171,
        "lon": 76.6075,
        "zone": "inland_west"
    },
    {
        "city": "Sheopur",
        "state": "Madhya Pradesh",
        "lat": 25.7499,
        "lon": 76.9213,
        "zone": "inland_west"
    },
    {
        "city": "Shivpuri",
        "state": "Madhya Pradesh",
        "lat": 25.3741,
        "lon": 77.8279,
        "zone": "inland_central"
    },
    {
        "city": "Sidhi",
        "state": "Madhya Pradesh",
        "lat": 24.2113,
        "lon": 81.7,
        "zone": "inland_central"
    },
    {
        "city": "Tikamgarh",
        "state": "Madhya Pradesh",
        "lat": 24.8552,
        "lon": 79.0473,
        "zone": "inland_central"
    },
    {
        "city": "Umaria",
        "state": "Madhya Pradesh",
        "lat": 23.6432,
        "lon": 80.9419,
        "zone": "inland_central"
    },
    {
        "city": "Vidisha",
        "state": "Madhya Pradesh",
        "lat": 23.8463,
        "lon": 77.837,
        "zone": "inland_central"
    },
    {
        "city": "Mumbai City",
        "state": "Maharashtra",
        "lat": 19.055,
        "lon": 72.8692,
        "zone": "coastal_west"
    },
    {
        "city": "Mumbai Suburban",
        "state": "Maharashtra",
        "lat": 19.0593,
        "lon": 72.8613,
        "zone": "coastal_west"
    },
    {
        "city": "Osmanabad",
        "state": "Maharashtra",
        "lat": 18.2822,
        "lon": 76.0588,
        "zone": "inland_west"
    },
    {
        "city": "Chandel",
        "state": "Manipur",
        "lat": 24.3312,
        "lon": 94.0011,
        "zone": "inland_northeast"
    },
    {
        "city": "Imphal East",
        "state": "Manipur",
        "lat": 24.8328,
        "lon": 94.0167,
        "zone": "inland_northeast"
    },
    {
        "city": "Imphal West",
        "state": "Manipur",
        "lat": 24.7591,
        "lon": 93.8617,
        "zone": "inland_northeast"
    },
    {
        "city": "Jiribam",
        "state": "Manipur",
        "lat": 24.8024,
        "lon": 93.1165,
        "zone": "inland_northeast"
    },
    {
        "city": "Kakching",
        "state": "Manipur",
        "lat": 24.4975,
        "lon": 93.9836,
        "zone": "inland_northeast"
    },
    {
        "city": "Kamjong",
        "state": "Manipur",
        "lat": 24.8578,
        "lon": 94.5108,
        "zone": "inland_northeast"
    },
    {
        "city": "Kangpokpi",
        "state": "Manipur",
        "lat": 25.1528,
        "lon": 93.9714,
        "zone": "inland_northeast"
    },
    {
        "city": "Noney",
        "state": "Manipur",
        "lat": 24.8591,
        "lon": 93.6327,
        "zone": "inland_northeast"
    },
    {
        "city": "Pherzawl",
        "state": "Manipur",
        "lat": 24.2596,
        "lon": 93.1906,
        "zone": "inland_northeast"
    },
    {
        "city": "Senapati",
        "state": "Manipur",
        "lat": 25.3934,
        "lon": 94.1502,
        "zone": "inland_northeast"
    },
    {
        "city": "Tamenglong",
        "state": "Manipur",
        "lat": 24.9859,
        "lon": 93.504,
        "zone": "inland_northeast"
    },
    {
        "city": "Tengnoupal",
        "state": "Manipur",
        "lat": 24.3626,
        "lon": 94.2595,
        "zone": "inland_northeast"
    },
    {
        "city": "Ukhrul",
        "state": "Manipur",
        "lat": 25.0983,
        "lon": 94.3632,
        "zone": "inland_northeast"
    },
    {
        "city": "East Garo Hills",
        "state": "Meghalaya",
        "lat": 25.6185,
        "lon": 90.6342,
        "zone": "inland_northeast"
    },
    {
        "city": "East Jaintia Hills",
        "state": "Meghalaya",
        "lat": 25.2516,
        "lon": 92.4841,
        "zone": "inland_northeast"
    },
    {
        "city": "East Khasi Hills",
        "state": "Meghalaya",
        "lat": 25.4024,
        "lon": 91.8317,
        "zone": "inland_northeast"
    },
    {
        "city": "North Garo Hills",
        "state": "Meghalaya",
        "lat": 25.862,
        "lon": 90.7018,
        "zone": "inland_northeast"
    },
    {
        "city": "Ri Bhoi",
        "state": "Meghalaya",
        "lat": 25.8764,
        "lon": 91.8568,
        "zone": "inland_northeast"
    },
    {
        "city": "South Garo Hills",
        "state": "Meghalaya",
        "lat": 25.348,
        "lon": 90.5658,
        "zone": "inland_northeast"
    },
    {
        "city": "South West Garo Hills ",
        "state": "Meghalaya",
        "lat": 25.4446,
        "lon": 89.997,
        "zone": "inland_northeast"
    },
    {
        "city": "South West Khasi Hills",
        "state": "Meghalaya",
        "lat": 25.3307,
        "lon": 91.3217,
        "zone": "inland_northeast"
    },
    {
        "city": "West Garo Hills",
        "state": "Meghalaya",
        "lat": 25.6065,
        "lon": 90.2038,
        "zone": "inland_northeast"
    },
    {
        "city": "West Jaintia Hills",
        "state": "Meghalaya",
        "lat": 25.4426,
        "lon": 92.2988,
        "zone": "inland_northeast"
    },
    {
        "city": "West Khasi Hills",
        "state": "Meghalaya",
        "lat": 25.5814,
        "lon": 91.0851,
        "zone": "inland_northeast"
    },
    {
        "city": "Kolasib",
        "state": "Mizoram",
        "lat": 24.1905,
        "lon": 92.7137,
        "zone": "inland_northeast"
    },
    {
        "city": "Lawngtlai",
        "state": "Mizoram",
        "lat": 22.3913,
        "lon": 92.7397,
        "zone": "inland_northeast"
    },
    {
        "city": "Mamit",
        "state": "Mizoram",
        "lat": 23.7564,
        "lon": 92.4515,
        "zone": "inland_northeast"
    },
    {
        "city": "Saiha",
        "state": "Mizoram",
        "lat": 22.2877,
        "lon": 93.0134,
        "zone": "inland_northeast"
    },
    {
        "city": "Serchhip",
        "state": "Mizoram",
        "lat": 23.3053,
        "lon": 92.8455,
        "zone": "inland_northeast"
    },
    {
        "city": "Kiphire",
        "state": "Nagaland",
        "lat": 25.8117,
        "lon": 94.8474,
        "zone": "inland_northeast"
    },
    {
        "city": "Longleng",
        "state": "Nagaland",
        "lat": 26.5839,
        "lon": 94.8045,
        "zone": "inland_northeast"
    },
    {
        "city": "Mon",
        "state": "Nagaland",
        "lat": 26.6667,
        "lon": 95.0,
        "zone": "inland_northeast"
    },
    {
        "city": "Peren",
        "state": "Nagaland",
        "lat": 25.45,
        "lon": 93.6002,
        "zone": "inland_northeast"
    },
    {
        "city": "Phek",
        "state": "Nagaland",
        "lat": 25.6701,
        "lon": 94.3844,
        "zone": "inland_northeast"
    },
    {
        "city": "Tuensang",
        "state": "Nagaland",
        "lat": 26.2342,
        "lon": 94.7416,
        "zone": "inland_northeast"
    },
    {
        "city": "Wokha",
        "state": "Nagaland",
        "lat": 26.2423,
        "lon": 94.1921,
        "zone": "inland_northeast"
    },
    {
        "city": "Zunheboto",
        "state": "Nagaland",
        "lat": 26.0124,
        "lon": 94.5124,
        "zone": "inland_northeast"
    },
    {
        "city": "Angul",
        "state": "Odisha",
        "lat": 21.1025,
        "lon": 84.9537,
        "zone": "inland_central"
    },
    {
        "city": "Balangir",
        "state": "Odisha",
        "lat": 20.6095,
        "lon": 83.1673,
        "zone": "inland_central"
    },
    {
        "city": "Bargarh",
        "state": "Odisha",
        "lat": 21.232,
        "lon": 83.5653,
        "zone": "inland_central"
    },
    {
        "city": "Boudh",
        "state": "Odisha",
        "lat": 20.6407,
        "lon": 83.997,
        "zone": "inland_central"
    },
    {
        "city": "Deogarh",
        "state": "Odisha",
        "lat": 21.5371,
        "lon": 84.7301,
        "zone": "inland_central"
    },
    {
        "city": "Dhenkanal",
        "state": "Odisha",
        "lat": 20.8351,
        "lon": 85.6022,
        "zone": "coastal_east"
    },
    {
        "city": "Gajapati",
        "state": "Odisha",
        "lat": 19.1966,
        "lon": 84.1931,
        "zone": "inland_central"
    },
    {
        "city": "Ganjam",
        "state": "Odisha",
        "lat": 19.609,
        "lon": 84.7081,
        "zone": "inland_central"
    },
    {
        "city": "Jagatsinghapur",
        "state": "Odisha",
        "lat": 20.1801,
        "lon": 86.3415,
        "zone": "coastal_east"
    },
    {
        "city": "Jajpur",
        "state": "Odisha",
        "lat": 20.8747,
        "lon": 86.1215,
        "zone": "coastal_east"
    },
    {
        "city": "Jharsuguda",
        "state": "Odisha",
        "lat": 21.8019,
        "lon": 83.9714,
        "zone": "inland_central"
    },
    {
        "city": "Kalahandi",
        "state": "Odisha",
        "lat": 19.8266,
        "lon": 83.0409,
        "zone": "inland_central"
    },
    {
        "city": "Kandhamal",
        "state": "Odisha",
        "lat": 20.1307,
        "lon": 84.079,
        "zone": "inland_central"
    },
    {
        "city": "Kendrapara",
        "state": "Odisha",
        "lat": 20.5475,
        "lon": 86.5296,
        "zone": "coastal_east"
    },
    {
        "city": "Kendujhar (Keonjhar)",
        "state": "Odisha",
        "lat": 21.6376,
        "lon": 85.6089,
        "zone": "coastal_east"
    },
    {
        "city": "Khordha",
        "state": "Odisha",
        "lat": 20.0538,
        "lon": 85.5023,
        "zone": "coastal_east"
    },
    {
        "city": "Koraput",
        "state": "Odisha",
        "lat": 18.7232,
        "lon": 82.6101,
        "zone": "inland_central"
    },
    {
        "city": "Malkangiri",
        "state": "Odisha",
        "lat": 18.2745,
        "lon": 81.952,
        "zone": "inland_central"
    },
    {
        "city": "Mayurbhanj",
        "state": "Odisha",
        "lat": 21.9156,
        "lon": 86.3962,
        "zone": "coastal_east"
    },
    {
        "city": "Nabarangpur",
        "state": "Odisha",
        "lat": 19.2289,
        "lon": 82.5666,
        "zone": "inland_central"
    },
    {
        "city": "Nayagarh",
        "state": "Odisha",
        "lat": 20.2394,
        "lon": 85.0507,
        "zone": "coastal_east"
    },
    {
        "city": "Nuapada",
        "state": "Odisha",
        "lat": 20.5413,
        "lon": 82.5292,
        "zone": "inland_central"
    },
    {
        "city": "Rayagada",
        "state": "Odisha",
        "lat": 19.4427,
        "lon": 83.5873,
        "zone": "inland_central"
    },
    {
        "city": "Sonepur",
        "state": "Odisha",
        "lat": 20.8454,
        "lon": 83.9091,
        "zone": "inland_central"
    },
    {
        "city": "Sundargarh",
        "state": "Odisha",
        "lat": 22.0605,
        "lon": 83.9359,
        "zone": "inland_central"
    },
    {
        "city": "Karaikal",
        "state": "Puducherry (UT)",
        "lat": 10.9157,
        "lon": 79.8376,
        "zone": "inland_south"
    },
    {
        "city": "Mahe",
        "state": "Puducherry (UT)",
        "lat": 11.7022,
        "lon": 75.5365,
        "zone": "inland_south"
    },
    {
        "city": "Yanam",
        "state": "Puducherry (UT)",
        "lat": 16.7385,
        "lon": 82.2106,
        "zone": "inland_central"
    },
    {
        "city": "Barnala",
        "state": "Punjab",
        "lat": 30.3717,
        "lon": 75.504,
        "zone": "himalayan"
    },
    {
        "city": "Faridkot",
        "state": "Punjab",
        "lat": 30.6015,
        "lon": 74.795,
        "zone": "himalayan"
    },
    {
        "city": "Fatehgarh Sahib",
        "state": "Punjab",
        "lat": 30.6634,
        "lon": 76.3803,
        "zone": "himalayan"
    },
    {
        "city": "Fazilka",
        "state": "Punjab",
        "lat": 30.3198,
        "lon": 74.1218,
        "zone": "himalayan"
    },
    {
        "city": "Ferozepur",
        "state": "Punjab",
        "lat": 30.684,
        "lon": 76.3594,
        "zone": "himalayan"
    },